stop_id,stop_name,type,location,in_lines,identifier,line_name,district,neighborhood,east_west_admin
19650,"Marienfelde, Daimlerstrasse",strassenbahn,"52.42393712,13.38022295",,,15,Tempelhof-Schöneberg,Marienfelde,west
19651,Großbeerenstrasse Ecke Daimlerstrasse,strassenbahn,"52.42636276,13.37438168",,,15,Tempelhof-Schöneberg,Marienfelde,west
19652,Körtingstrasse Ecke Großbeerenstrasse,strassenbahn,"52.43481353,13.37831564",,,15,Tempelhof-Schöneberg,Mariendorf,west
19653,Mariendorferdamm Ecke Alt-Mariendorf,strassenbahn,"52.44016815,13.38730997",,,15,Tempelhof-Schöneberg,Mariendorf,west
19654,Imbrosweg Ecke Rixdorferstrasse,strassenbahn,"52.44352627,13.39862544",,,15,Tempelhof-Schöneberg,Mariendorf,west
19655,Mariendamm Friedhof,strassenbahn,"52.44953069,13.40475593",,,15,Tempelhof-Schöneberg,Mariendorf,west
19656,Industriestrasse Ecke Gottlieb-Dunkel-Strasse,strassenbahn,"52.45533607,13.40989571",,,15,Tempelhof-Schöneberg,Tempelhof,west
19657,Germaniastrasse Ecke Gottlieb-Dunkel-Strasse,strassenbahn,"52.46053987,13.41805889",,,15,Tempelhof-Schöneberg,Tempelhof,west
19658,"Frauenklinik, Mariendorferweg",strassenbahn,"52.46394991,13.42750955",,,15,Neukölln,Neukölln,east
19659,Hermannstrasse/Britzer Damm,strassenbahn,"52.46276073,13.43439092",,,15,Neukölln,Britz,west
196510,U-Bhf. Neukölln,strassenbahn,"52.46965568,13.44161494",,,15,Neukölln,Neukölln,east
196511,Richardstrasse Ecke Braunschweigerstrasse,strassenbahn,"52.47098038,13.44634551",,,15,Neukölln,Neukölln,east
196512,Saalestrasse Ecke Braunschweigerstrasse,strassenbahn,"52.47386377,13.45592059",,,15,,,
196512,Saalestrasse Ecke Sonnenallee,strassenbahn,"52.47384843,13.45589857",,,15,Neukölln,Neukölln,east
196513,Dammweg Ecke Sonnenallee,strassenbahn,"52.47028918,13.46461967",,,15,Neukölln,Neukölln,east
196514,Schulenburgpark,strassenbahn,"52.46666061,13.47029259",,,15,Neukölln,Neukölln,east
196515,Gradestrasse Ecke Tempelhofer Weg,strassenbahn,"52.45253932,13.43305683",,,47,Neukölln,Britz,west
196516,U-Bhf. Blaschkoallee,strassenbahn,"52.45247429,13.44902591",,,47,Neukölln,Britz,west
196517,Buschkrugallee Ecke Blaschkoallee,strassenbahn,"52.45253092,13.45217109",,,47,Neukölln,Britz,west
196518,Onkel-Herse-Strasse Ecke Buschkrugallee,strassenbahn,"52.44824572,13.45392578",,,47,Neukölln,Britz,west
196519,Parchimerallee Ecke Buschkrugallee,strassenbahn,"52.44543069,13.45497615",,,47,Neukölln,Britz,west
196520,Grünerweg Ecke Buschkrugallee,strassenbahn,"52.44256249,13.45634565",,,47,Neukölln,Britz,west
196521,Krankenhaus Neukölln,strassenbahn,"52.43977054,13.45935906",,,47,Neukölln,Buckow,west
196522,Johannisthaler Chaussee Ecke Rudowerstrasse,strassenbahn,"52.43431775,13.46904333",,,47,Neukölln,Buckow,west
196523,Wildmeisterdamm Ecke Neuköllnerstrasse,strassenbahn,"52.42577675,13.48323925",,,47,Neukölln,Rudow,west
196524,Stubenrauchstrasse Ecke Neuköllnerstrasse,strassenbahn,"52.42416862,13.48544348",,,47,Neukölln,Rudow,west
196525,Köpenickerstrasse Ecke Neuköllnerstrasse,strassenbahn,"52.41693184,13.49408867",,,47,Neukölln,Rudow,west
196526,Groß-Ziethener-Chaussee Ecke Waltersdorferchaussee,strassenbahn,"52.41611361,13.49741897",,,47,Neukölln,Rudow,west
196527,"Rudow, Stadtgrenze",strassenbahn,"52.40149832,13.51359770",,,47P,Neukölln,Rudow,west
196528,Richard-Wagner-Platz,strassenbahn,"52.51757062,13.30624812",,,53,Charlottenburg-Wilmersdorf,Charlottenburg,west
196529,Luisenplatz,strassenbahn,"52.52039497,13.29942701",,,53,Charlottenburg-Wilmersdorf,Charlottenburg,west
196530,Klausenerplatz,strassenbahn,"52.51920201,13.29186737",,,53,Charlottenburg-Wilmersdorf,Charlottenburg,west
196531,Kirschenallee Ecke Spandauerdamm,strassenbahn,"52.52038534,13.26714901",,,53,Charlottenburg-Wilmersdorf,Westend,west
196532,Schloß Ruhwald,strassenbahn,"52.52160458,13.26039687",,,53,Charlottenburg-Wilmersdorf,Westend,west
196533,U-Bhf. Ruhleben,strassenbahn,"52.52595777,13.24137187",,,53,Spandau,Spandau,west
196534,Teltowerstrasse Ecke Ruhlebenerstrasse,strassenbahn,"52.52649488,13.21644671",,,53,Spandau,Wilhelmstadt,west
196535,Freiheit,strassenbahn,"52.53269779,13.20751844",,,53,Spandau,Spandau,west
196536,Spandauer Markt,strassenbahn,"52.53687071,13.20531554",,,53,Spandau,Spandau,west
196537,Hafenplatz,strassenbahn,"52.54229255,13.20620113",,,53,Spandau,Spandau,west
196538,Lynarstrasse Ecke Neuendorferstrasse,strassenbahn,"52.54898037,13.21025253",,,53,Spandau,Hakenfelde,west
196539,Hohenzollernring Ecke Streitstrasse,strassenbahn,"52.55572554,13.20753076",,,53,Spandau,Hakenfelde,west
196540,"Hakenfelde, Niederneuendorferallee",strassenbahn,"52.57049943,13.21252012",,,53,Spandau,Hakenfelde,west
196541,Lynarstrasse Ecke Schönwalderstrasse,strassenbahn,"52.54844825,13.20081057",,,54,Spandau,Spandau,west
196542,Hohenzollernring Ecke Schönwalderstrasse,strassenbahn,"52.55536761,13.19859324",,,54,,,
196542,"Spandau, Johannesstift",strassenbahn,"52.56762417,13.19178261",,,54,Spandau,Hakenfelde,west
196543,Bhf. Zoo,strassenbahn,"52.50719346,13.33262988",,,55,Charlottenburg-Wilmersdorf,Charlottenburg,west
196544,Ernst-Reuter-Platz,strassenbahn,"52.51159182,13.32257153",,,55,Charlottenburg-Wilmersdorf,Charlottenburg,west
196545,Otto-Suhr-Allee Ecke Leibnizstrasse,strassenbahn,"52.51465062,13.31519191",,,55,Charlottenburg-Wilmersdorf,Charlottenburg,west
196546,Osnabrückerstrasse Ecke Tegelerweg,strassenbahn,"52.52651985,13.29732033",,,55,Charlottenburg-Wilmersdorf,Charlottenburg,west
196547,Jakob-Kaiser-Platz,strassenbahn,"52.53674528,13.29357089",,,55,Charlottenburg-Wilmersdorf,Charlottenburg-Nord,west
196548,Quellweg Ecke Nonnendammallee,strassenbahn,"52.53662795,13.26837045",,,55,Spandau,Siemensstadt,west
196549,Paulsternstrasse Ecke Gartenfelderstrasse,strassenbahn,"52.54412196,13.24701046",,,55,Spandau,Haselhorst,west
196550,Zitadellenweg Ecke Am Juliusturm,strassenbahn,"52.53777974,13.21728515",,,55,Spandau,Haselhorst,west
196551,Carl-Schurz-Strasse Ecke Am Juliusturm,strassenbahn,"52.53954502,13.20555083",,,55,Spandau,Spandau,west
196552,Hohenzollernring Ecke Neuendorferstrasse,strassenbahn,"52.55571250,13.20754149",,,55,Spandau,Hakenfelde,west
196553,Hakenfelde,strassenbahn,"52.57886010,13.21005780",,,55,Spandau,Hakenfelde,west
196554,"Zoo, Kantstrasse",strassenbahn,"52.50528855,13.33160349",,,75,Charlottenburg-Wilmersdorf,Charlottenburg,west
196555,"Spandau, Hakenfelde",strassenbahn,"52.57049943,13.21252012",,,55,,,
196555,Leibnizstrasse Ecke Kantstrasse,strassenbahn,"52.50628812,13.31395372",,,75,Spandau,Hakenfelde,west
196556,Wilmersdorferstrasse Ecke Kantstrasse,strassenbahn,"52.50669450,13.30667544",,,75,Charlottenburg-Wilmersdorf,Charlottenburg,west
196557,Amtsgericht,strassenbahn,"52.50682618,13.29739145",,,75,Charlottenburg-Wilmersdorf,Charlottenburg,west
196558,Messedamm,strassenbahn,"52.50641939,13.28039244",,,75,Charlottenburg-Wilmersdorf,Westend,west
196559,Theodor-Heuss-Platz,strassenbahn,"52.50948066,13.27259770",,,75,Charlottenburg-Wilmersdorf,Westend,west
196560,Preußenallee Ecke Heerstrasse,strassenbahn,"52.50859211,13.25931279",,,75,Charlottenburg-Wilmersdorf,Westend,west
196561,Reichssportfeldstrasse Ecke Heerstrasse,strassenbahn,"52.50751473,13.24208670",,,75,Charlottenburg-Wilmersdorf,Westend,west
196562,Stößenseebrücke,strassenbahn,"52.50889437,13.21747597",,,75,Charlottenburg-Wilmersdorf,Westend,west
196563,Pichelsdorferstrasse Ecke Heerstrasse,strassenbahn,"52.51311471,13.19691856",,,75,Spandau,Wilhelmstadt,west
196564,Seeburgerstrasse Ecke Klosterstrasse,strassenbahn,"52.52914199,13.19558478",,,75,Spandau,Wilhelmstadt,west
196565,Rathaus Spandau,strassenbahn,"52.53488082,13.19905885",,,75,Spandau,Spandau,west
196566,"Spandau, Markt",strassenbahn,"52.53784350,13.20413543",,,75,Spandau,Spandau,west
196567,Hohenzollernring Ecke Schönwalderstrasse,strassenbahn,"52.55530890,13.19860397",,,76,Spandau,Hakenfelde,west
196568,Johannesstift,strassenbahn,"52.56762417,13.19178261",,,76,Spandau,Hakenfelde,west
196569,Lindenstrasse Ecke Kochstrasse,strassenbahn,"52.50708787,13.39827979",,,96,Friedrichshain-Kreuzberg,Kreuzberg,west
196570,Mehringplatz,strassenbahn,"52.49792491,13.39108107",,,96,Friedrichshain-Kreuzberg,Kreuzberg,west
196571,Yorckstrasse Ecke Mehringdamm,strassenbahn,"52.49288890,13.38767014",,,96,Friedrichshain-Kreuzberg,Kreuzberg,west
196572,U-Bhf. Flughafen,strassenbahn,"52.48477998,13.38596223",,,96,Tempelhof-Schöneberg,Tempelhof,west
196573,Adolf-Scheidt-Platz,strassenbahn,"52.47819486,13.37836902",,,96,Tempelhof-Schöneberg,Tempelhof,west
196574,Berlinickeplatz,strassenbahn,"52.46632968,13.37814469",,,96,Tempelhof-Schöneberg,Tempelhof,west
196575,Attilaplatz,strassenbahn,"52.45549834,13.37561964",,,96,Tempelhof-Schöneberg,Tempelhof,west
196576,Ringstrasse Ecke Attilastrasse,strassenbahn,"52.44731185,13.36209225",,,96,Tempelhof-Schöneberg,Tempelhof,west
196577,"Lankwitz, Kirche",strassenbahn,"52.43629411,13.34577794",,,96,Steglitz-Zehlendorf,Lankwitz,west
196578,Seydlitzstrasse Ecke Kaiser-Wilhelm-Strasse,strassenbahn,"52.43194429,13.33814378",,,96,Steglitz-Zehlendorf,Lankwitz,west
196579,Kranoldplatz,strassenbahn,"52.42782085,13.32657579",,,96,Steglitz-Zehlendorf,Lichterfelde,west
196580,Ostpreußendamm Ecke Morgensternstrasse,strassenbahn,"52.42589579,13.31710731",,,96,Steglitz-Zehlendorf,Lichterfelde,west
196581,Giesensdorferstrasse Ecke Ostpreußendamm,strassenbahn,"52.42400572,13.31441951",,,96,Steglitz-Zehlendorf,Lichterfelde,west
196582,"Lichterfelde, Goerzallee",strassenbahn,"52.41785382,13.28703404",,,96,Steglitz-Zehlendorf,Lichterfelde,west
196583,Waldstrasse Ecke Turmstrasse,autobus,"52.52720084,13.33052493",,,A1,Mitte,Moabit,west
196584,Gotzkowskybrücke,autobus,"52.52381238,13.32972912",,,A1,Mitte,Moabit,west
196585,Dovebrücke,autobus,"52.51943492,13.31929294",,,A1,Charlottenburg-Wilmersdorf,Charlottenburg,west
196586,Otto-Suhr-Allee Ecke Cauerstrasse,autobus,"52.51467908,13.31513688",,,A1,Charlottenburg-Wilmersdorf,Charlottenburg,west
196587,Kurfürstendamm Ecke Leibnizstrasse,autobus,"52.50064083,13.31300996",,,A1,Charlottenburg-Wilmersdorf,Charlottenburg,west
196588,U-Bhf. Fehrbelliner Platz,autobus,"52.49039093,13.31417746",,,A1,Charlottenburg-Wilmersdorf,Wilmersdorf,west
196589,Berlinerstrasse Ecke Brandenburgischestrasse,autobus,"52.48649124,13.32038510",,,A1,Charlottenburg-Wilmersdorf,Wilmersdorf,west
196590,Hildegardstrasse Ecke Blissestrasse,autobus,"52.48181400,13.32032961",,,A1,Charlottenburg-Wilmersdorf,Wilmersdorf,west
196591,Detmolderstrasse Ecke Blissestrasse,autobus,"52.47879433,13.32028118",,,A1,Charlottenburg-Wilmersdorf,Wilmersdorf,west
196592,Breitenbachplatz,autobus,"52.46721972,13.30947349",,,A1,Steglitz-Zehlendorf,Dahlem,west
196593,Botanischer Garten,autobus,"52.45859880,13.30343606",,,A1,Steglitz-Zehlendorf,Dahlem,west
196594,Pacelliallee/Thielallee,autobus,"52.45822390,13.28702576",,,A1,Steglitz-Zehlendorf,Dahlem,west
196595,Clayallee Ecke Königin-Luise-Strasse,autobus,"52.46044681,13.27489827",,,A1,Steglitz-Zehlendorf,Dahlem,west
196596,U-Bhf. Oskar-Helene-Heim,autobus,"52.45027901,13.27036199",,,A1,Steglitz-Zehlendorf,Dahlem,west
196597,Potsdamerstrasse Ecke Clayallee,autobus,"52.43505475,13.26040016",,,A1,Steglitz-Zehlendorf,Zehlendorf,west
196598,Rathaus Zehlendorf,autobus,"52.43320752,13.25953192",,,A1,Steglitz-Zehlendorf,Zehlendorf,west
196599,Machnowerstrasse Ecke Teltowerdamm,autobus,"52.43081519,13.25928297",,,A1,Steglitz-Zehlendorf,Zehlendorf,west
1965100,Beeskowdamm Ecke Teltowerstrasse,autobus,"52.40897892,13.26734680",,,A1,Steglitz-Zehlendorf,Zehlendorf,west
1965101,Wismarerstrasse Ecke Goerzallee,autobus,"52.42196127,13.29845504",,,A1,Steglitz-Zehlendorf,Lichterfelde,west
1965102,Lindenstrasse Ecke Ostpreußendamm,autobus,"52.41788577,13.30524076",,,A1,Steglitz-Zehlendorf,Lichterfelde,west
1965103,"Bhf. Zoo, Hardenbergplatz",autobus,"52.50696177,13.33308096",,,A2,Charlottenburg-Wilmersdorf,Charlottenburg,west
1965104,Spichernstrasse Ecke Bundesallee,autobus,"52.49595111,13.33077976",,,A2,Charlottenburg-Wilmersdorf,Wilmersdorf,west
1965105,Berlinerstrasse Ecke Bundesallee,autobus,"52.48732427,13.33091399",,,A2,Charlottenburg-Wilmersdorf,Wilmersdorf,west
1965106,Bundesplatz,autobus,"52.47867899,13.32860278",,,A2,Charlottenburg-Wilmersdorf,Wilmersdorf,west
1965107,Friedrich-Wilhelm-Platz,autobus,"52.47128806,13.32836213",,,A2,Tempelhof-Schöneberg,Friedenau,west
1965108,Schloßstrasse Ecke Bundesallee,autobus,"52.46494077,13.32851361",,,A2,Tempelhof-Schöneberg,Friedenau,west
1965109,Feuerbachstrasse Ecke Bismarckstrasse,autobus,"52.46451344,13.33892787",,,A2,Steglitz-Zehlendorf,Steglitz,west
1965110,Bergstrasse Ecke Bismarckstrasse,autobus,"52.45863817,13.33931462",,nan+ nan,A2,Steglitz-Zehlendorf,Steglitz,west
1965111,Steglitzerdamm Ecke Halskestrasse,autobus,"52.45002165,13.34670705",,,A2,Steglitz-Zehlendorf,Steglitz,west
1965112,Leonorenstrasse Ecke Siemensstrasse,autobus,"52.44438058,13.33887527",,,A2,Steglitz-Zehlendorf,Lankwitz,west
1965113,"Lankwitz, Kirche",autobus,"52.43629187,13.34574539",,,A2,Steglitz-Zehlendorf,Lankwitz,west
1965114,Havensteinstrasse Ecke Gallwitzallee,autobus,"52.43194849,13.34634331",,,A2,Steglitz-Zehlendorf,Lankwitz,west
1965115,Lerbacher Weg,autobus,"52.42568639,13.34759454",,,A2,Steglitz-Zehlendorf,Lankwitz,west
1965116,Trippsteinstrase Ecke Frankenhauserstrasse,autobus,"52.41708279,13.34765431",,,A2,Steglitz-Zehlendorf,Lankwitz,west
1965117,Winfriedstrasse Ecke Clayallee,autobus,"52.43922363,13.26287811",,,A3,Steglitz-Zehlendorf,Zehlendorf,west
1965118,Sundgauerstrasse Ecke Clayallee,autobus,"52.44557392,13.26767122",,,A3,Steglitz-Zehlendorf,Zehlendorf,west
1965119,U-Bhf. Onkel-Toms-Hütte,autobus,"52.45007713,13.25127259",,,A3,Steglitz-Zehlendorf,Zehlendorf,west
1965120,U-Bhf. Krumme Lanke,autobus,"52.44361298,13.24100643",,,A3,Steglitz-Zehlendorf,Zehlendorf,west
1965121,Lindenthalerallee Ecke Argentischestrasse,autobus,"52.43767236,13.23234537",,,A3,Steglitz-Zehlendorf,Zehlendorf,west
1965122,Spanischeallee Ecke Potsdamerschaussee,autobus,"52.42962237,13.22400734",,,A3,Steglitz-Zehlendorf,Nikolassee,west
1965123,Schopenhauerstrasse Ecke Spanischeallee,autobus,"52.43394923,13.21204795",,,A3,Steglitz-Zehlendorf,Nikolassee,west
1965124,Borussenstrasse Ecke Spanischeallee,autobus,"52.43382331,13.19324567",,,A3,Steglitz-Zehlendorf,Nikolassee,west
1965125,Am Beelitzhof Ecke Kronprinzessinnenweg,autobus,"52.43221622,13.18668380",,,A3,Steglitz-Zehlendorf,Nikolassee,west
1965126,Bhf. Wannsee,autobus,"52.42151302,13.17810257",,,A3,Steglitz-Zehlendorf,Wannsee,west
1965127,Am Großen Wannssee Ecke Königstrasse,autobus,"52.42050256,13.16717980",,,A3,Steglitz-Zehlendorf,Wannsee,west
1965128,Pfaueninselchaussee Ecke Königstrasse,autobus,"52.41883990,13.15300828",,,A3,Steglitz-Zehlendorf,Wannsee,west
1965129,Rathaus Wannsee,autobus,"52.41844013,13.14887249",,,A3,Steglitz-Zehlendorf,Wannsee,west
1965130,"Stölpchensee, Wilhelmplatz",autobus,"52.41240583,13.14164452",,,A3,Steglitz-Zehlendorf,Wannsee,west
1965131,"Neu-Westend, Brixplatz",autobus,"52.51950863,13.25638651",,,A4,Charlottenburg-Wilmersdorf,Westend,west
1965132,Theodor-Heuss-Platz,autobus,"52.50937134,13.27256472",,,A4,Charlottenburg-Wilmersdorf,Westend,west
1965133,Messedamm,autobus,"52.50446815,13.27941210",,,A4,Charlottenburg-Wilmersdorf,Westend,west
1965134,Henriettenplatz,autobus,"52.49701780,13.29033951",,,A4,Charlottenburg-Wilmersdorf,Halensee,west
1965135,Hochmeisterplatz,autobus,"52.49468638,13.30125468",,,A4,Charlottenburg-Wilmersdorf,Wilmersdorf,west
1965136,Berlinerstrasse Ecke Uhlandstrasse,autobus,"52.48647343,13.32250152",,,A4,Charlottenburg-Wilmersdorf,Wilmersdorf,west
1965137,Bundesallee Ecke Badenschestrasse,autobus,"52.48612222,13.33105202",,,A4,Charlottenburg-Wilmersdorf,Wilmersdorf,west
1965138,Rathaus Schöneberg,autobus,"52.48515474,13.34508660",,,A4,Tempelhof-Schöneberg,Schöneberg,east
1965139,Innsbrucker Platz,autobus,"52.47854551,13.34405869",,,A4,Tempelhof-Schöneberg,Schöneberg,east
1965140,Hauptstrasse Ecke Dominicusstrasse,autobus,"52.48178378,13.34841821",,",+nan",A4,Tempelhof-Schöneberg,Schöneberg,east
1965141,Kaiser-Wilhelm-Platz,autobus,"52.48632925,13.35655627",,,A4,Tempelhof-Schöneberg,Schöneberg,east
1965142,Dudenstrasse Ecke Katzbachstrasse,autobus,"52.48503402,13.37659343",,,A4,Friedrichshain-Kreuzberg,Kreuzberg,west
1965143,U-Bhf. Flughafen,autobus,"52.48488596,13.38599655",,,A4,Friedrichshain-Kreuzberg,Kreuzberg,west
1965144,Columbiadamm Ecke Friesenstrasse,autobus,"52.48396787,13.39436897",,,A4,Friedrichshain-Kreuzberg,Kreuzberg,west
1965145,Flughafenstrasse Ecke Hermannstrasse,autobus,"52.48071391,13.42508430",,,A4,Neukölln,Neukölln,east
1965146,Kienitzerstrasse Ecke Karl-Marx-Strasse,autobus,"52.47761763,13.43849396",,,A4,Neukölln,Neukölln,east
1965147,Sonnenallee Ecke Erkstrasse,autobus,"52.48167462,13.44010366",,,A4,Neukölln,Neukölln,east
1965148,Harzerstrasse Ecke Elsenstrasse,autobus,"52.48508524,13.44890845",,,A4,Neukölln,Neukölln,east
1965149,Machandelweg,autobus,"52.52483520,13.24567178",,,A5,Spandau,Spandau,west
1965150,U-Bhf. Ruhleben,autobus,"52.52596833,13.24147858",,,A5,Spandau,Spandau,west
1965151,Teltowerstrasse Ecke Ruhlebenerstrasse,autobus,"52.52649488,13.21644671",,,A5,Spandau,Wilhelmstadt,west
1965152,Stresowplatz,autobus,"52.53362878,13.20678183",,,A5,Spandau,Spandau,west
1965153,Breite Straße Ecke Charlottenstraße,autobus,"52.53614601,13.20442667",,,A5,Spandau,Spandau,west
1965154,Rathaus Spandau,autobus,"52.53457836,13.19949094",,,A5,Spandau,Spandau,west
1965155,Zeppelinstrasse Ecke Seegefelderstrasse,autobus,"52.53843134,13.18241060",,,A5,Spandau,Spandau,west
1965156,Falkenseerchaussee Ecke Zeppelinstrasse,autobus,"52.54753513,13.18466337",,,A5,Spandau,Falkenhagener Feld,west
1965157,Waldkrankenhaus,autobus,"52.56214543,13.15834009",,,A5,Spandau,Falkenhagener Feld,west
1965158,"Spandau, Landesnervenklinik",autobus,"52.56341330,13.15430729",,,A5,Spandau,Falkenhagener Feld,west
1965159,S-Bhf. Wannsee,autobus,"52.42146076,13.17811897",,,A6,Steglitz-Zehlendorf,Wannsee,west
1965160,Königstrasse Ecke Kronprinzessinnenweg,autobus,"52.41993325,13.17531239",,,A6,Steglitz-Zehlendorf,Wannsee,west
1965161,Pfaueninselschaussee Ecke Königstrasse,autobus,"52.41884731,13.15300813",,,A6,Steglitz-Zehlendorf,Wannsee,west
1965162,Friedenstrasse Ecke Königstrasse,autobus,"52.41722225,13.13897505",,,A6,Steglitz-Zehlendorf,Wannsee,west
1965163,Schäferberg,autobus,"52.41562662,13.12630868",,,A6,Steglitz-Zehlendorf,Wannsee,west
1965164,Nikolskoerweg Ecke Königstrasse,autobus,"52.41402767,13.10923663",,,A6,Steglitz-Zehlendorf,Wannsee,west
1965165,Glienicker Brücke,autobus,"52.41347409,13.09123588",,,A6,Steglitz-Zehlendorf,Wannsee,west
1965166,"Haselhorst, Kirche",autobus,"52.54682818,13.23706589",,,A10,Spandau,Haselhorst,west
1965167,Paulsternstrasse Ecke Nonnendamm,autobus,"52.53816278,13.24773062",,,A10,Spandau,Haselhorst,west
1965168,Verwaltungs-Gebaüde,autobus,"52.53706333,13.26228517",,,A10,Spandau,Siemensstadt,west
1965169,Spandauerdamm Ecke Fürstenbrunnerweg,autobus,"52.51839041,13.28021290",,,A10,Charlottenburg-Wilmersdorf,Westend,west
1965170,U-Bhf. Kaiserdamm,autobus,"52.50999451,13.28180313",,,A10,Charlottenburg-Wilmersdorf,Westend,west
1965171,Masurenallee Ecke Messedamm,autobus,"52.50646272,13.28040040",,,A10,Charlottenburg-Wilmersdorf,Westend,west
1965172,Amtsgericht,autobus,"52.50682618,13.29739145",,,A10,Charlottenburg-Wilmersdorf,Charlottenburg,west
1965173,Kurfürstendamm Ecke Joachim-Friedrichstrasse,autobus,"52.49800512,13.29619975",,,A10,Charlottenburg-Wilmersdorf,Halensee,west
1965174,Rathenauplatz,autobus,"52.49561135,13.28657375",,,A10,Charlottenburg-Wilmersdorf,Halensee,west
1965175,Elsterplatz,autobus,"52.47977983,13.28550761",,,A10,Charlottenburg-Wilmersdorf,Schmargendorf,west
1965176,Hundekehlestrasse Ecke Warnemünderstrasse,autobus,"52.47539508,13.29037561",,,A10,Charlottenburg-Wilmersdorf,Schmargendorf,west
1965177,Königin-Luise-Strasse Ecke Pacelliallee,autobus,"52.45831131,13.28712680",,,A10,Steglitz-Zehlendorf,Dahlem,west
1965178,U-Bhf. Thielplatz,autobus,"52.45104521,13.28173642",,,A10,Steglitz-Zehlendorf,Dahlem,west
1965179,Berlinerstrasse Ecke Thielallee,autobus,"52.44181287,13.28274544",,,A10,Steglitz-Zehlendorf,Zehlendorf,west
1965180,Berlinerstrasse Ecke Sundgauerstrasse,autobus,"52.43833478,13.27141130",,,A10,Steglitz-Zehlendorf,Zehlendorf,west
1965181,Teltowerdamm Ecke Clayallee,autobus,"52.43506014,13.26041541",,,A10,Steglitz-Zehlendorf,Zehlendorf,west
1965182,Teltowerdamm Ecke Machnowerstrasse,autobus,"52.43081551,13.25929641",,,A10,Steglitz-Zehlendorf,Zehlendorf,west
1965183,Behring-Krankenhaus,autobus,"52.42410895,13.25176454",,,A10,Steglitz-Zehlendorf,Zehlendorf,west
1965184,Lupsteinerweg Ecke Sachtlebenstrasse,autobus,"52.40951067,13.25160884",,,A10,Steglitz-Zehlendorf,Zehlendorf,west
1965185,Saargemünderstrasse Ecke Clayallee,autobus,"52.45093246,13.27071876",,,A11,Steglitz-Zehlendorf,Dahlem,west
1965186,Ihnestrasse Ecke Garystrasse,autobus,"52.44831170,13.27633996",,,A11,Steglitz-Zehlendorf,Dahlem,west
1965187,Corrensplatz,autobus,"52.44601401,13.28426468",,,A11,Steglitz-Zehlendorf,Dahlem,west
1965188,Unter den Eichen Ecke Habelschwendterallee,autobus,"52.44574706,13.29356835",,,A11,Steglitz-Zehlendorf,Lichterfelde,west
1965189,Gardeschützerweg Ecke Drakestrasse,autobus,"52.44267225,13.29700971",,,A11,Steglitz-Zehlendorf,Lichterfelde,west
1965190,Ringstrasse Ecke Drakestrasse,autobus,"52.43979507,13.30016971",,,A11,Steglitz-Zehlendorf,Lichterfelde,west
1965191,Wiesenbaude,autobus,"52.43049524,13.31180861",,,A11,Steglitz-Zehlendorf,Lichterfelde,west
1965192,Ostrpreußendamm Ecke Königsbergerstrasse,autobus,"52.43078834,13.31750145",,,A11,Steglitz-Zehlendorf,Lichterfelde,west
1965193,Marienstrasse Ecke Königsbergerstrasse,autobus,"52.42946322,13.32166308",,,A11,Steglitz-Zehlendorf,Lichterfelde,west
1965194,Morgensternstrasse Ecke Königsbergerstrasse,autobus,"52.42807231,13.32551407",,,A11,Steglitz-Zehlendorf,Lichterfelde,west
1965195,Kranoldplatz,autobus,"52.42777476,13.32647358",,,A11,Steglitz-Zehlendorf,Lichterfelde,west
1965196,Langestrasse Ecke Lorenzstrasse,autobus,"52.42401446,13.33313155",,,A11,Steglitz-Zehlendorf,Lichterfelde,west
1965197,Hildburghauserstrasse Ecke Mariannenstrasse,autobus,"52.41661432,13.33818246",,,A11,Steglitz-Zehlendorf,Lichterfelde,west
1965198,Stadtilmerweg,autobus,"52.41507278,13.34597485",,,A11,Tempelhof-Schöneberg,Marienfelde,west
1965199,"Marienelde, Alt-Marienfelde",autobus,"52.41210781,13.36273360",,,A11,Tempelhof-Schöneberg,Marienfelde,west
1965200,Gartenstrasse Ecke Bernauerstrasse,autobus,"52.53343698,13.38751889",,,A12,Mitte,Gesundbrunnen,west
1965201,Grenzstrasse Ecke Ackerstrasse,autobus,"52.54070452,13.37926714",,,A12,Mitte,Gesundbrunnen,west
1965202,U-Bhf. Leopold-Platz,autobus,"52.54640033,13.35909680",,,A12,Mitte,Wedding,west
1965203,U-Bhf. Seestrasse,autobus,"52.55031541,13.35229850",,,A12,Mitte,Wedding,west
1965204,Bristolstrasse Ecke Barfusstrasse,autobus,"52.55830889,13.35117448",,,A12,Mitte,Wedding,west
1965205,Emmentalerstrasse Ecke Aroserallee,autobus,"52.56751553,13.35120118",,,A12,Reinickendorf,Reinickendorf,west
1965206,Lindauerallee Ecke Roedernallee,autobus,"52.57437590,13.34773196",,,A12,Reinickendorf,Reinickendorf,west
1965207,Tessenowstrasse Ecke Roedernallee,autobus,"52.58314996,13.34369472",,,A12,Reinickendorf,Wittenau,west
1965208,Rathaus Reinickendorf,autobus,"52.59165784,13.32633528",,,A12,Reinickendorf,Wittenau,west
1965209,Cyclopstrasse Ecke Hermsdorferstrasse,autobus,"52.60209837,13.32482303",,,A12,Reinickendorf,Wittenau,west
1965210,Zabel-Krüger-Damm Ecke Oraniendamm,autobus,"52.60785215,13.32378976",,,A12,Reinickendorf,Waidmannslust,west
1965211,Almutstrasse Ecke Berlinerstrasse,autobus,"52.61486970,13.31706314",,,A12,Reinickendorf,Hermsdorf,west
1965212,Hermsdorferdamm Ecke Berlinerstrasse,autobus,"52.62241093,13.31288776",,,A12,Reinickendorf,Hermsdorf,west
1965213,Zeitingerplatz,autobus,"52.63352257,13.29039813",,,A12,Reinickendorf,Frohnau,west
1965214,Donnersmarkplatz,autobus,"52.63014387,13.28046436",,,A12,Reinickendorf,Frohnau,west
1965215,Hainbuchenstrasse Ecke Stolzingstrasse,autobus,"52.63436579,13.27495612",,,A12,Reinickendorf,Frohnau,west
1965216,"Heiligensee, Alt-Heiligensee",autobus,"52.60174637,13.21022269",,,A13,Reinickendorf,Heiligensee,west
1965217,Am Dachsbau Ecke Heiligenseestrasse,autobus,"52.60656467,13.22982450",,,A13,Reinickendorf,Heiligensee,west
1965218,Gabelung,autobus,"52.59988613,13.25204129",,,A13,Reinickendorf,Tegel,west
1965219,Ruppinerchaussee Ecke Heiligenseestrasse,autobus,"52.59792775,13.27502724",,,A13,Reinickendorf,Tegel,west
1965220,U-Bhf. Tegel,autobus,"52.58950313,13.28363072",,,A13,Reinickendorf,Tegel,west
1965221,Bernauerstrasse Ecke Berlinerstrasse,autobus,"52.57632475,13.29471004",,,A13,Reinickendorf,Tegel,west
1965222,Krankenhaus Tegel-Süd,autobus,"52.57573398,13.27874933",,,A13,Reinickendorf,Tegel,west
1965223,Strasse nach Saatwinkel Ecke Bernauerstrasse,autobus,"52.56775987,13.25791205",,,A13,Reinickendorf,Tegel,west
1965224,Paulsternstrasse Ecke Gartenfelderstrasse,autobus,"52.54412196,13.24701046",,,A13,Spandau,Haselhorst,west
1965225,Daumstrasse Ecke Am Juliusturm,autobus,"52.53927882,13.23206301",,,A13,Spandau,Haselhorst,west
1965226,Carl-Schurzstrasse Ecke Am Juliusturm,autobus,"52.53954249,13.20559420",,,A13,Spandau,Spandau,west
1965227,Seeburgerstrasse Ecke Klosterstrasse,autobus,"52.52914199,13.19558478",,,A13,Spandau,Wilhelmstadt,west
1965228,Päwesinerweg Ecke Seeburgerstrasse,autobus,"52.52631959,13.18186001",,,A13,Spandau,Wilhelmstadt,west
1965229,Heerstrasse Ecke Wilhelmstrasse,autobus,"52.51662458,13.17902230",,,A13,Spandau,Wilhelmstadt,west
1965230,Weinmeisterhornweg Ecke Wilhelmstrasse,autobus,"52.51102790,13.17160161",,,A13,Spandau,Wilhelmstadt,west
1965231,Mattenbuder Pfad Ecke Henningsdorferstrasse,autobus,"52.61696711,13.22053385",,,A14,Reinickendorf,Heiligensee,west
1965232,Ruppinerchaussee Ecke Henningsdorferstrasse,autobus,"52.62646800,13.22755031",,,A14,Reinickendorf,Heiligensee,west
1965233,Schulzendorferstrasse Ecke Ruppinerchaussee,autobus,"52.61441645,13.24489068",,,A14,Reinickendorf,Heiligensee,west
1965234,Heiligenseestrasse Ecke Karolinenstrasse,autobus,"52.59793113,13.27502610",,,A14,Reinickendorf,Tegel,west
1965235,Ziekowstrasse Ecke Gorkistrasse,autobus,"52.59058636,13.29210637",,,A14,Reinickendorf,Tegel,west
1965236,"Alt-Wittenau, Rathaus Reinickendorf",autobus,"52.59196651,13.32644524",,,A14,Reinickendorf,Wittenau,west
1965237,Aroserallee Ecke Lindauerallee,autobus,"52.57378753,13.35197104",,,A14,Reinickendorf,Reinickendorf,west
1965238,Kopenhagenerstrasse Ecke Klemkestrasse,autobus,"52.57426441,13.35917869",,,A14,Reinickendorf,Reinickendorf,west
1965239,Klemkestrasse Ecke Sommerstrasse,autobus,"52.57477832,13.37353041",,,A14,Reinickendorf,Reinickendorf,west
1965240,Pankowerallee Ecke Provinzstrasse,autobus,"52.56468480,13.37806280",,,A14,Reinickendorf,Reinickendorf,west
1965241,Osloerstrasse Ecke Drontheimerstrasse,autobus,"52.55645127,13.37705419",,,A14,Mitte,Gesundbrunnen,west
1965242,Pankstrasse Ecke Badstrasse,autobus,"52.55227404,13.38138720",,,A14,Mitte,Gesundbrunnen,west
1965243,U-Bhf. Gesundbrunnen,autobus,"52.54947942,13.38652401",,,A14,Mitte,Gesundbrunnen,west
1965244,Rügenerstrasse Ecke Brunnenstrasse,autobus,"52.54472500,13.39102468",,,A14,Mitte,Gesundbrunnen,west
1965245,Lübarserstrasse Ecke Eichorsterweg,autobus,"52.60279735,13.33575475",,,A15,Reinickendorf,Wittenau,west
1965246,Cyclopstrasse Ecke Oranienburgerstrasse,autobus,"52.59750985,13.33255807",,,A15,Reinickendorf,Wittenau,west
1965247,Alt-Wittenau Ecke Oranienburgerstrasse,autobus,"52.58969313,13.33418093",,,A15,Reinickendorf,Wittenau,west
1965248,Breitenbachstrasse Ecke Eichborndamm,autobus,"52.57783790,13.31483743",,,A15,Reinickendorf,Borsigwalde,west
1965249,Holzhauserstrasse Ecke Breitenbachstrasse,autobus,"52.58199553,13.30545455",,,A15,Reinickendorf,Borsigwalde,west
1965250,Borsigwalderweg Ecke Ecke Conradstrasse,autobus,"52.58481078,13.29793830",,,A15,Reinickendorf,Borsigwalde,west
1965251,Gorkistrasse Ecke Ziekowstrasse,autobus,"52.59056318,13.29198781",,,A15,Reinickendorf,Tegel,west
1965252,Hermsdorferdamm Ecke Karolinenstrasse,autobus,"52.59996370,13.28132933",,,A15,Reinickendorf,Tegel,west
1965253,Schulzendorferstrasse Ecke Hermsdorferdamm,autobus,"52.61058699,13.29550843",,,A15,Reinickendorf,Hermsdorf,west
1965254,Dominikus Krankenhaus,autobus,"52.62619652,13.29449567",,,A15,Reinickendorf,Hermsdorf,west
1965255,Donnersmarckplatz,autobus,"52.63015050,13.28045133",,,A15,Reinickendorf,Frohnau,west
1965256,Zeitlingerplatz,autobus,"52.63352257,13.29039813",,,A15,Reinickendorf,Frohnau,west
1965257,Am Pilz,autobus,"52.64251497,13.30090805",,,A15,Reinickendorf,Frohnau,west
1965258,Invalidensiedlung,autobus,"52.65584642,13.29035793",,,A15,Reinickendorf,Frohnau,west
1965259,Osloerstrasse Ecke Koloniestrasse,autobus,"52.55643380,13.37744264",,,A16,Mitte,Gesundbrunnen,west
1965260,Luise-Schroeder-Platz,autobus,"52.55703815,13.36628643",,,A16,Mitte,Wedding,west
1965261,Virchow-Krankenhaus,autobus,"52.54371513,13.33931792",,,A16,Mitte,Wedding,west
1965262,Fennstrasse Ecke Tegelerstrasse,autobus,"52.53794452,13.36161806",,,A16,Mitte,Wedding,west
1965263,Wilsnackerstrasse Ecke Perlebergerstrasse,autobus,"52.53188508,13.34929041",,,A16,Mitte,Moabit,west
1965264,Hansaplatz,autobus,"52.51793433,13.34203819",,,A16,Mitte,Hansaviertel,west
1965265,Großer Stern,autobus,"52.51452472,13.34993319",,,A16,Mitte,Tiergarten,west
1965266,Lützowplatz,autobus,"52.50502902,13.35182287",,,A16,Mitte,Tiergarten,west
1965267,Nollendorfplatz,autobus,"52.49968844,13.35308644",,,A16,Tempelhof-Schöneberg,Schöneberg,east
1965268,Wiesbadenerstrasse Ecke Südwestkorso,autobus,"52.47164317,13.31958712",,,A16,Charlottenburg-Wilmersdorf,Wilmersdorf,west
1965269,Englerallee,autobus,"52.46361923,13.30489502",,,A16,Steglitz-Zehlendorf,Dahlem,west
1965270,"Grunewald, Fontanestrasse",autobus,"52.48728923,13.26380017",,,A17,Charlottenburg-Wilmersdorf,Grunewald,west
1965271,Hagenplatz,autobus,"52.48338297,13.26581870",,,A17,Charlottenburg-Wilmersdorf,Grunewald,west
1965272,Roseneck,autobus,"52.47580090,13.28241127",,,A17,Charlottenburg-Wilmersdorf,Schmargendorf,west
1965273,Warnemünderstrasse Ecke Breitestrasse,autobus,"52.47539579,13.29037056",,,A17,Charlottenburg-Wilmersdorf,Schmargendorf,west
1965274,U-Bhf. Rüdesheimerplatz,autobus,"52.47292404,13.31439017",,,A17,Charlottenburg-Wilmersdorf,Wilmersdorf,west
1965275,Schloßstrasse Ecke Rheinstrasse,autobus,"52.46496454,13.32848791",,,A17,Tempelhof-Schöneberg,Friedenau,west
1965276,Rathaus Steglitz,autobus,"52.45563378,13.32105078",,,A17,Steglitz-Zehlendorf,Steglitz,west
1965277,Stadtpark,autobus,"52.44890556,13.33882767",,,A17,Steglitz-Zehlendorf,Steglitz,west
1965278,Stadion Lichterfelde,autobus,"52.43867923,13.32505044",,,A17,Steglitz-Zehlendorf,Lichterfelde,west
1965279,Königsbergerstrasse Ecke Ostpreußendamm,autobus,"52.43078107,13.31748966",,,A17,Steglitz-Zehlendorf,Lichterfelde,west
1965280,Oberhoferplatz,autobus,"52.42432102,13.32837352",,,A17,Steglitz-Zehlendorf,Lichterfelde,west
1965281,Saaleckplatz,autobus,"52.41629158,13.32394196",,,A17,Steglitz-Zehlendorf,Lichterfelde,west
1965282,Sophie-Charlotte-Strasse Ecke Clayallee,autobus,"52.44594168,13.26781841",,,A18,Steglitz-Zehlendorf,Dahlem,west
1965283,Scharfestrasse Ecke Clayallee,autobus,"52.43826689,13.26228604",,,A18,Steglitz-Zehlendorf,Zehlendorf,west
1965284,Mittelstrasse Ecke Potsdamerstrasse,autobus,"52.43473692,13.24926053",,,A18,Steglitz-Zehlendorf,Zehlendorf,west
1965285,Wolzogenstrasse Ecke Potsdamerchaussee,autobus,"52.43228424,13.23570972",,,A18,Steglitz-Zehlendorf,Zehlendorf,west
1965286,Spanischeallee Ecke Potsdamerchaussee,autobus,"52.42958745,13.22402595",,,A18,Steglitz-Zehlendorf,Nikolassee,west
1965287,Waldfriedhof,autobus,"52.42599573,13.20924605",,,A18,Steglitz-Zehlendorf,Nikolassee,west
1965288,Quantzstrasse Ecke Potsdamerchaussee,autobus,"52.42315874,13.20222949",,,A18,Steglitz-Zehlendorf,Nikolassee,west
1965289,Kronprinzessinnenweg Ecke Königsstrasse,autobus,"52.41992383,13.17532264",,,A18,Steglitz-Zehlendorf,Wannsee,west
1965290,Am Großen Wannsee Ecke Königsstrasse,autobus,"52.42050256,13.16717980",,,A18,Steglitz-Zehlendorf,Wannsee,west
1965291,Pfaueninselchaussee Ecke Königsstrasse,autobus,"52.41883032,13.15301989",,,A18,Steglitz-Zehlendorf,Wannsee,west
1965292,Stölpchensee,autobus,"52.40943024,13.14381795",,,A18,Steglitz-Zehlendorf,Wannsee,west
1965293,Machnowerstrasse Ecke Königsweg,autobus,"52.39761381,13.14365940",,,A18,Steglitz-Zehlendorf,Wannsee,west
1965294,Erdenerstrasse Ecke Königsallee,autobus,"52.49053761,13.27635675",,,A19,Charlottenburg-Wilmersdorf,Grunewald,west
1965295,Wilmersdorferstrasse Ecke Kurfürstendamm,autobus,"52.50011662,13.30701429",,,A19,Charlottenburg-Wilmersdorf,Charlottenburg,west
1965296,Olivaerplatz,autobus,"52.49997141,13.31297061",,,A19,Charlottenburg-Wilmersdorf,Charlottenburg,west
1965297,Joachim-Friedrich-Strasse Ecke Kurfürstendamm,autobus,"52.49797323,13.29620598",,,A19,Charlottenburg-Wilmersdorf,Halensee,west
1965298,Breitscheidplatz,autobus,"52.50443806,13.33564616",,,A19,Charlottenburg-Wilmersdorf,Charlottenburg,west
1965299,Wittenbergplatz,autobus,"52.50188939,13.34269788",,,A19,Tempelhof-Schöneberg,Schöneberg,east
1965300,Potsdamerstrasse Ecke Bülowstrasse,autobus,"52.49781684,13.36203432",,,A19,Tempelhof-Schöneberg,Schöneberg,east
1965301,Bautzenerstrasse Ecke Yorckstrasse,autobus,"52.49266114,13.37093569",,,A19,Tempelhof-Schöneberg,Schöneberg,east
1965302,Katzbachstrasse Ecke Yorckstrasse,autobus,"52.49156095,13.37674534",,,A19,Friedrichshain-Kreuzberg,Kreuzberg,west
1965303,Mehringdamm,autobus,"52.49293918,13.38772030",,,A19,Friedrichshain-Kreuzberg,Kreuzberg,west
1965304,Flughafen Tempelhof,autobus,"52.48430845,13.38587202",,,A19,Tempelhof-Schöneberg,Tempelhof,west
1965305,"Tegelort, Almazeile",autobus,"52.57056042,13.23019256",,,A20,Reinickendorf,Konradshöhe,east
1965306,Gerlindeweg Ecke Friederikestrasse,autobus,"52.57564386,13.22896485",,,A20,Reinickendorf,Konradshöhe,east
1965307,Falkenplatz,autobus,"52.58490938,13.22761993",,,A20,Reinickendorf,Konradshöhe,east
1965308,Freiheitsweg,autobus,"52.58923448,13.24114056",,,A20,Reinickendorf,Tegel,west
1965309,Karolinenstrasse Ecke Hermsdorferdamm,autobus,"52.59678679,13.27666137",,,A20,Reinickendorf,Tegel,west
1965310,Hatzfeldtallee Ecke Buddestrasse,autobus,"52.59193118,13.28613645",,,A20,Reinickendorf,Tegel,west
1965311,Martin-Luther-Friedhaus,autobus,"52.59837048,13.29834314",,,A20,Reinickendorf,Tegel,west
1965311,Heiligenseestrasse Ecke Karolinenstrasse,autobus,"52.59793908,13.27504957",,,A20,,,
1965312,Freie Scholle,autobus,"52.59985154,13.30173616",,,A20,Reinickendorf,Tegel,west
1965313,Waldhornstrasse Ecke Waidmannslusterdamm,autobus,"52.60286060,13.30810524",,,A20,Reinickendorf,Waidmannslust,west
1965314,Cyclopstrasse Ecke Waidmannslusterdamm,autobus,"52.60700630,13.31976899",,,A20,Reinickendorf,Waidmannslust,west
1965315,Oraniendamm Ecke Waidmannslusterdamm,autobus,"52.60785131,13.32378768",,,A20,Reinickendorf,Waidmannslust,west
1965316,Am Vierrutenberg Ecke Zabel-Krüger-Damm,autobus,"52.61351518,13.34383031",,,A20,Reinickendorf,Lübars,east
1965317,Lübars Dorfaue,autobus,"52.62036688,13.35560142",,,A20,Reinickendorf,Lübars,east
1965318,Wilhelmsruher Damm/Wentowsteig,autobus,"52.59669616,13.35675334",,,A21,Reinickendorf,Märkisches Viertel,east
1965319,Oranienburgerstrasse Ecke Wilhelmsruherdamm,autobus,"52.59547232,13.33299542",,,A21,Reinickendorf,Wittenau,west
1965320,Alt-Wittenau Ecke Eichborndamm,autobus,"52.59187978,13.32645958",,,A21,Reinickendorf,Wittenau,west
1965321,Scharnweberstrasse Ecke Eichborndamm,autobus,"52.56791784,13.31192345",,,A21,Reinickendorf,Reinickendorf,west
1965322,Kurt-Schumacher-Platz,autobus,"52.56343825,13.32713029",,,A21,Reinickendorf,Reinickendorf,west
1965323,Kaserne Südtor,autobus,"52.55685970,13.30843424",,,A21,Reinickendorf,Tegel,west
1965324,Heckerdamm Ecke Kurt-Schumacherdamm,autobus,"52.53961523,13.29537519",,,A21,Charlottenburg-Wilmersdorf,Charlottenburg-Nord,west
1965325,Olbersstrasse Ecke Tegeler Weg,autobus,"52.52931086,13.29629795",,,A21,Charlottenburg-Wilmersdorf,Charlottenburg,west
1965326,Luisenplatz,autobus,"52.52005409,13.29951339",,,A21,Charlottenburg-Wilmersdorf,Charlottenburg,west
1965327,Kantstrasse,autobus,"52.50678795,13.30232027",,,A21,Charlottenburg-Wilmersdorf,Charlottenburg,west
1965328,Stuttgarter Platz,autobus,"52.50551611,13.30292330",,,A21,Charlottenburg-Wilmersdorf,Charlottenburg,west
1965329,Hohenzollerndamm Ecke Seesenerstrasse,autobus,"52.48839537,13.30213634",,,A21,Charlottenburg-Wilmersdorf,Wilmersdorf,west
1965330,"Moabit, Wiebestrasse",autobus,"52.53119513,13.31906377",,,A24,Mitte,Moabit,west
1965331,Gotzkowskystrasse Ecke Turmstrasse,autobus,"52.52718286,13.33057117",,,A24,Mitte,Moabit,west
1965332,Stromstrasse Ecke Turmstrasse,autobus,"52.52634184,13.34312496",,,A24,Mitte,Moabit,west
1965333,Rathenowerstrasse Ecke Turmstrasse,autobus,"52.52676345,13.35531893",,,A24,Mitte,Moabit,west
1965334,Alt-Moabit Ecke Rathenowerstrasse,autobus,"52.52365631,13.35697889",,,A24,Mitte,Moabit,west
1965335,John-Foster-Dulles Ecke Spreeweg,autobus,"52.51708970,13.35460979",,,A24,Mitte,Tiergarten,west
1965336,Tiergartenstrasse Ecke Großer Stern,autobus,"52.50959121,13.35134335",,,A24,Mitte,Tiergarten,west
1965337,Potsdamerstrasse Ecke Schöneberger Ufer,autobus,"52.50581887,13.36824810",,,A24,Mitte,Tiergarten,west
1965338,Hafenplatz,autobus,"52.50392084,13.37547988",,,A24,Friedrichshain-Kreuzberg,Kreuzberg,west
1965339,Askanischer Platz,autobus,"52.50447897,13.38229547",,,A24,Friedrichshain-Kreuzberg,Kreuzberg,west
1965340,U-Bhf. Hallesches Tor,autobus,"52.49791002,13.39130767",,,A24,Friedrichshain-Kreuzberg,Kreuzberg,west
1965341,Alexandrinenstrasse Ecke Neuenburgerstrasse,autobus,"52.49946450,13.40038294",,,A24,Friedrichshain-Kreuzberg,Kreuzberg,west
1965342,Gneisenaustrasse Ecke Zossenerstrasse,autobus,"52.49156620,13.39439538",,,A24,Friedrichshain-Kreuzberg,Kreuzberg,west
1965343,Unionplatz,autobus,"52.53305940,13.33727881",,,A25,Mitte,Moabit,west
1965344,Gotzkowskystrasse,autobus,"52.52718721,13.33055093",,,A25,Mitte,Moabit,west
1965345,Ernst-Reuter-Platz,autobus,"52.51159182,13.32257153",,,A25,Charlottenburg-Wilmersdorf,Charlottenburg,west
1965346,Bhf. Zoo,autobus,"52.50702953,13.33322012",,,A25,Charlottenburg-Wilmersdorf,Charlottenburg,west
1965347,Kurfürstendamm Ecke Joachimstalerstrasse,autobus,"52.50382176,13.33132406",,,A25,Charlottenburg-Wilmersdorf,Charlottenburg,west
1965348,Lietzenburgerstrasse Ecke Joachimstalerstrasse,autobus,"52.50048518,13.33084620",,,A25,Charlottenburg-Wilmersdorf,Charlottenburg,west
1965349,Pariserstrasse Ecke Bundesallee,autobus,"52.49590004,13.33042968",,,A25,Charlottenburg-Wilmersdorf,Wilmersdorf,west
1965350,Kaisereiche,autobus,"52.46896806,13.33261489",,,A25,Tempelhof-Schöneberg,Friedenau,west
1965351,Grazerplatz,autobus,"52.46731774,13.34764981",,,A25,Tempelhof-Schöneberg,Schöneberg,east
1965352,Attilaplatz,autobus,"52.45590180,13.37651250",,,A25,Tempelhof-Schöneberg,Tempelhof,west
1965353,Tempelhoferdamm Ecke Ordensmeisterstrasse,autobus,"52.45579861,13.38396352",,,A25,Tempelhof-Schöneberg,Tempelhof,west
1965354,Gottlieb-Dunkelstrasse Ecke Tempelhofer Weg,autobus,"52.46050759,13.41797587",,,A25,Tempelhof-Schöneberg,Tempelhof,west
1965355,Britzerdamm Ecke Tempelhoferweg,autobus,"52.44889761,13.43620385",,,A25,Neukölln,Britz,west
1965356,U-Bhf. Parchimerallee,autobus,"52.44570961,13.44989755",,,A25,Neukölln,Britz,west
1965357,Grünerweg Ecke Parchimerallee,autobus,"52.44478076,13.45890602",,,A25,Neukölln,Britz,west
1965358,Loewenhardtdamm,autobus,"52.48165790,13.37445329",,,A28,Tempelhof-Schöneberg,Tempelhof,west
1965359,Kreuzbergstrasse Ecke Katzbachstrasse,autobus,"52.48940625,13.37669525",,,A28,Friedrichshain-Kreuzberg,Kreuzberg,west
1965360,Yorckstrasse Ecke Großbeerenstrasse,autobus,"52.49371348,13.38350221",,,A28,Friedrichshain-Kreuzberg,Kreuzberg,west
1965361,Mehringdamm Ecke Yorckstrasse,autobus,"52.49291007,13.38769433",,,A28,Friedrichshain-Kreuzberg,Kreuzberg,west
1965362,Zossenerstrasse Ecke Gneisenaustrasse,autobus,"52.49158552,13.39440500",,,A28,Friedrichshain-Kreuzberg,Kreuzberg,west
1965363,Südstern,autobus,"52.48895865,13.40781380",,,A28,Friedrichshain-Kreuzberg,Kreuzberg,west
1965364,Urban-Krankenhaus,autobus,"52.49346936,13.40624512",,,A28,Friedrichshain-Kreuzberg,Kreuzberg,west
1965365,U-Bhf. Prinzenstrasse,autobus,"52.49844154,13.40664384",,,A28,Friedrichshain-Kreuzberg,Kreuzberg,west
1965366,U-Bhf. Kottbuser Tor,autobus,"52.49909420,13.41826700",,,A28,Friedrichshain-Kreuzberg,Kreuzberg,west
1965367,Oranienstrasse Ecke Adalbertstrasse,autobus,"52.50129319,13.41925515",,,A28,Friedrichshain-Kreuzberg,Kreuzberg,west
1965368,Mariannenplatz,autobus,"52.50228674,13.42408623",,,A28,Friedrichshain-Kreuzberg,Kreuzberg,west
1965369,Köpenickerstrasse Ecke Manteufelstrasse,autobus,"52.50575155,13.43197089",,,A28,Friedrichshain-Kreuzberg,Kreuzberg,west
1965370,U-Bhf. Schlesisches Tor,autobus,"52.50108420,13.44197126",,,A28,Friedrichshain-Kreuzberg,Kreuzberg,west
1965371,Heckmannufer Ecke Schlesischestrasse,autobus,"52.49753811,13.44837791",,,A28,Friedrichshain-Kreuzberg,Kreuzberg,west
1965372,Berkaerstrasse Ecke Teplitzerstrasse,autobus,"52.48211530,13.28118174",,,A29,Charlottenburg-Wilmersdorf,Grunewald,west
1965373,Franzensbaderstrasse Ecke Hubertusallee,autobus,"52.48543154,13.28417080",,,A29,Charlottenburg-Wilmersdorf,Grunewald,west
1965374,Bismarckplatz,autobus,"52.49206454,13.28493897",,,A29,Charlottenburg-Wilmersdorf,Grunewald,west
1965375,Joachim-Friedrichstrasse Ecke Kurfürstendamm,autobus,"52.49797302,13.29623577",,,A29,Charlottenburg-Wilmersdorf,Halensee,west
1965376,Uhlandstrasse Ecke Kurfürstendamm,autobus,"52.50253243,13.32528045",,,A29,Charlottenburg-Wilmersdorf,Charlottenburg,west
1965377,Joachimstalerstrasse Ecke Kurfürstendamm,autobus,"52.50383438,13.33138069",,,A29,Charlottenburg-Wilmersdorf,Charlottenburg,west
1965378,Lützowstrasse Ecke Potsdamerstrasse,autobus,"52.50309427,13.36566995",,,A29,Mitte,Tiergarten,west
1965379,Schönebergerstrasse Ecke Hallesches Ufer,autobus,"52.50192110,13.37690647",,,A29,Friedrichshain-Kreuzberg,Kreuzberg,west
1965380,Askanischerplatz,autobus,"52.50447538,13.38235997",,,A29,Friedrichshain-Kreuzberg,Kreuzberg,west
1965381,U-Bhf. Kochstrasse,autobus,"52.50669824,13.39050322",,,A29,Friedrichshain-Kreuzberg,Kreuzberg,west
1965382,Lindenstrasse Ecke Oranienstrasse,autobus,"52.50708473,13.39830086",,,A29,Friedrichshain-Kreuzberg,Kreuzberg,west
1965383,U-Bhf. Moritzplatz,autobus,"52.50366900,13.41055755",,,A29,Friedrichshain-Kreuzberg,Kreuzberg,west
1965384,Oranienplatz,autobus,"52.50232371,13.41551013",,,A29,Friedrichshain-Kreuzberg,Kreuzberg,west
1965385,Nauenerstrasse Ecke Brunsbüttlerdamm,autobus,"52.53405375,13.18168918",,,A31,Spandau,Spandau,west
1965386,Magistratsweg Ecke Brunsbüttelerdamm,autobus,"52.53310161,13.15797587",,,A31,Spandau,Staaken,west
1965387,Hackbuschstrasse Ecke Torweg,autobus,"52.53959925,13.15022902",,,A31,Spandau,Staaken,west
1965388,Heidebergplan,autobus,"52.54107413,13.14733873",,,A31,Spandau,Staaken,west
1965389,Gritznerstrasse Ecke Schildhornstrasse,autobus,"52.46432401,13.31648845",,,A32,Steglitz-Zehlendorf,Steglitz,west
1965390,Schloßstrasse Ecke Schildhornstrasse,autobus,"52.46148865,13.32515018",,,A32,Steglitz-Zehlendorf,Steglitz,west
1965391,"Rathaus Steglitz, Schloßstrasse",autobus,"52.45638642,13.32015874",,,A32,Steglitz-Zehlendorf,Steglitz,west
1965392,Kuhligkshofstrasse Ecke Albrechtstrasse,autobus,"52.45647464,13.32266025",,,A32,Steglitz-Zehlendorf,Steglitz,west
1965393,Sedanstrasse Ecke Albrechtstrasse,autobus,"52.45143415,13.33535514",,,A32,Steglitz-Zehlendorf,Steglitz,west
1965394,Stindestrasse Ecke Albrechtstrasse,autobus,"52.44812942,13.34011389",,,A32,Steglitz-Zehlendorf,Steglitz,west
1965395,Bhf. Lankwitz,autobus,"52.43916666,13.34356778",,,A32,Steglitz-Zehlendorf,Lankwitz,west
1965396,Malteserstrasse Ecke Paul-Schneider-Strasse,autobus,"52.43332587,13.35301874",,,A32,Steglitz-Zehlendorf,Lankwitz,west
1965397,Marchandstraasse Ecke Malteserstrasse,autobus,"52.42301789,13.35749781",,,A32,Steglitz-Zehlendorf,Lankwitz,west
1965398,Marienfelderallee Ecke Malteserstrasse,autobus,"52.41372773,13.36191679",,,A32,Tempelhof-Schöneberg,Marienfelde,west
1965399,Stegerwaldstrasse Ecke Marienfelderallee,autobus,"52.42072124,13.36926660",,,A32,Tempelhof-Schöneberg,Marienfelde,west
1965400,Bahnstrasse Ecke Marienfelderallee,autobus,"52.42488059,13.37307043",,,A32,Tempelhof-Schöneberg,Marienfelde,west
1965401,Berlinickestrasse Ecke Albrechtstrasse,autobus,"52.45613384,13.32388935",,,A33,Steglitz-Zehlendorf,Steglitz,west
1965402,Handjeryplatz,autobus,"52.45147899,13.33531014",,,A33,Steglitz-Zehlendorf,Steglitz,west
1965403,Heinrich-Seidelstrasse Ecke Steglitzerdamm,autobus,"52.45020464,13.34509572",,,A33,Steglitz-Zehlendorf,Steglitz,west
1965404,S-Bhf. Südende,autobus,"52.44902461,13.35443762",,,A33,Steglitz-Zehlendorf,Steglitz,west
1965405,Steglitzerdamm Ecke Attilastrasse,autobus,"52.44676905,13.36072241",,,A33,Steglitz-Zehlendorf,Steglitz,west
1965406,Kaiser-/Ringstrasse,autobus,"52.44448052,13.37222908",,,A33,Tempelhof-Schöneberg,Mariendorf,west
1965407,Rathausstrasse Ecke Kaiserstrasse,autobus,"52.44526215,13.37948232",,,A33,Tempelhof-Schöneberg,Mariendorf,west
1965408,Kaiserstrasse Ecke Mariendorferdamm,autobus,"52.44556286,13.38580057",,,A33,Tempelhof-Schöneberg,Mariendorf,west
1965409,"Spandau, Friedhof",autobus,"52.55313629,13.17967445",,,A34,Spandau,Falkenhagener Feld,west
1965410,Pionierstrasse Ecke Zeppelinstrasse,autobus,"52.55150025,13.18552122",,,A34,Spandau,Falkenhagener Feld,west
1965411,Askanierring Ecke Falkenhagenerstrasse,autobus,"52.54892650,13.19348270",,,A34,Spandau,Spandau,west
1965412,"Spandau, Hafenplatz",autobus,"52.54215888,13.20604486",,,A34,Spandau,Spandau,west
1965413,Wilhelmstrasse Ecke Klosterstrasse,autobus,"52.52916945,13.19565266",,,A34,Spandau,Wilhelmstadt,west
1965414,Adamstrasse Ecke Pichelsdorferstrasse,autobus,"52.52107038,13.19779651",,,A34,Spandau,Wilhelmstadt,west
1965415,Heerstrasse Ecke Pichelsdorferstrasse,autobus,"52.51306304,13.19689712",,,A34,Spandau,Wilhelmstadt,west
1965416,Weinmeisterhornweg Ecke Gatowerstrasse,autobus,"52.50926294,13.18033740",,,A34,Spandau,Wilhelmstadt,west
1965417,Ortsgrenze Gatow,autobus,"52.49816017,13.18001442",,,A34,Spandau,Gatow,west
1965418,"Gatow, Kirche",autobus,"52.48684681,13.18215148",,,A34,Spandau,Gatow,west
1965419,Großglienickerweg Ecke Kladowerdamm,autobus,"52.48313296,13.18267729",,,A34,Spandau,Gatow,west
1965420,Krankenhaus Hohengatow,autobus,"52.47044988,13.16939160",,,A34,Spandau,Gatow,west
1965421,Krankenhaus Havelhöhe,autobus,"52.46291933,13.15899083",,,A34,Spandau,Kladow,west
1965422,Alt-Kladow Ecke Kladowerdamm,autobus,"52.45345793,13.14387535",,,A34,Spandau,Kladow,west
1965423,Schweizerhaus,autobus,"52.46175022,13.13357880",,,A34,Spandau,Kladow,west
1965424,Gutshof,autobus,"52.47510904,13.12071054",,,A34,Spandau,Kladow,west
1965425,Alt-Gatow,autobus,"52.48331436,13.18269333",,,A34 E,Spandau,Gatow,west
1965426,Großglienickerweg,autobus,"52.48155728,13.17437384",,,A34 E,Spandau,Gatow,west
1965427,Siedlung Habichtswald,autobus,"52.47953016,13.14206961",,,A34 E,Spandau,Gatow,west
1965428,Krampnitzerweg Ecke Sakrower Landstrasse,autobus,"52.45224947,13.13839944",,,A35,Spandau,Kladow,west
1965429,"Kladow, Hottengrund",autobus,"52.44608218,13.12631025",,,A35,Spandau,Kladow,west
1965430,"Kladow, Dorfplatz",autobus,"52.45233907,13.13858722",,,A35 E,Spandau,Kladow,west
1965431,Sarkower Landstrasse Ecke Kladowerdamm,autobus,"52.45336191,13.14374514",,,A35 E,Spandau,Kladow,west
1965432,Krampnitzerweg Ecke Sarkower Landstrasse,autobus,"52.45227850,13.13840632",,,A35 E,Spandau,Kladow,west
1965433,Pottensteinerweg Ecke Selbitzerstrasse,autobus,"52.45051486,13.12165202",,,A35 E,Spandau,Kladow,west
1965434,Lanzendorferweg Ecke Pottensteinerweg,autobus,"52.45047761,13.11861910",,,A35 E,Spandau,Kladow,west
1965435,Altenheim Hottengrund,autobus,"52.44892367,13.11423775",,,A35 E,Spandau,Kladow,west
1965436,"Zehlendorf, Potsdamerstrasse Ecke Fischerhüttenstrasse",autobus,"52.43574406,13.25604513",,,A48,Steglitz-Zehlendorf,Zehlendorf,west
1965437,Teltowerdamm Ecke Potsdamerstrasse,autobus,"52.43506854,13.26043342",,,A48,Steglitz-Zehlendorf,Zehlendorf,west
1965438,Sundgauerstrasse Ecke Potsdamerstrasse,autobus,"52.43835132,13.27139377",,,A48,Steglitz-Zehlendorf,Zehlendorf,west
1965439,Dahlemerweg Ecke Berlinerstrasse,autobus,"52.44188094,13.28273380",,,A48,Steglitz-Zehlendorf,Zehlendorf,west
1965440,Drakestrasse Ecke Unter den Eichen,autobus,"52.44573233,13.29369722",,,A48,Steglitz-Zehlendorf,Lichterfelde,west
1965441,Hindenburgdamm Ecke Schloßstrasse,autobus,"52.45348338,13.31557093",,,A48,Steglitz-Zehlendorf,Steglitz,west
1965442,Bundesallee Ecke Schloßstrasse,autobus,"52.46491935,13.32846219",,,A48,Tempelhof-Schöneberg,Friedenau,west
1965443,Innsbruckerplatz,autobus,"52.47847894,13.34403026",,,A48,Tempelhof-Schöneberg,Schöneberg,east
1965444,Pallasstrasse Ecke Potsdamerstrasse,autobus,"52.49433810,13.36106238",,,A48,Tempelhof-Schöneberg,Schöneberg,east
1965445,U-Bhf. Bülowstrasse,autobus,"52.49787470,13.36212460",,,A48,Tempelhof-Schöneberg,Schöneberg,east
1965446,Tiergartenstrasse/Philharmonie,autobus,"52.51075589,13.36887626",,,A48,Mitte,Tiergarten,west
1965447,"Roseneck, Rheinbabenallee",autobus,"52.47593478,13.28212574",,,A50,Charlottenburg-Wilmersdorf,Schmargendorf,west
1965448,Forckenbeckstrasse Ecke Hohenzollerndamm,autobus,"52.48221132,13.29002747",,,A50,Charlottenburg-Wilmersdorf,Schmargendorf,west
1965449,Rudolstädterstrasse,autobus,"52.48842112,13.30215328",,,A50,Charlottenburg-Wilmersdorf,Wilmersdorf,west
1965450,U-Bhf. Fehrbellinerplatz,autobus,"52.49038178,13.31421227",,,A50,Charlottenburg-Wilmersdorf,Wilmersdorf,west
1965451,Uhlandstrasse Ecke Güntzelstrasse,autobus,"52.49152711,13.32321130",,,A50,Charlottenburg-Wilmersdorf,Wilmersdorf,west
1965452,Pragerplatz,autobus,"52.49295457,13.33315040",,,A50,Charlottenburg-Wilmersdorf,Wilmersdorf,west
1965453,Königstrasse Ecke Am Großen Wannsee,autobus,"52.42049713,13.16716791",,,A51,Steglitz-Zehlendorf,Wannsee,west
1965454,Krankenhaus Heckeshorn,autobus,"52.43498873,13.16171669",,,A51,Steglitz-Zehlendorf,Wannsee,west
1965455,"Marienfelde, Stadtrandsiedlung",autobus,"52.40262128,13.35330799",,,A52,Tempelhof-Schöneberg,Marienfelde,west
1965456,Alt-Marienfelde Ecke Merienfelderallee,autobus,"52.41341610,13.36332925",,,A52,Tempelhof-Schöneberg,Marienfelde,west
1965457,Kettingerstrasse Ecke Buckowerchaussee,autobus,"52.41324337,13.39549820",,,A52,Tempelhof-Schöneberg,Lichtenrade,west
1965458,Lichtenraderdamm Ecke Buckowerchaussee,autobus,"52.41453449,13.40113965",,,A52,Tempelhof-Schöneberg,Lichtenrade,west
1965459,Bühlerweg,autobus,"52.41733641,13.41295295",,,A52,Neukölln,Buckow,west
1965460,Buckower Friedhaus,autobus,"52.42153161,13.43021506",,,A52,Neukölln,Buckow,west
1965461,Buckowerdamm Ecke Alt-Buckow,autobus,"52.42364174,13.43667664",,,A52,Neukölln,Buckow,west
1965462,Grünerweg Ecke Johannisthalerchaussee,autobus,"52.42961354,13.45376113",,,A52,Neukölln,Gropiusstadt,west
1965463,Triftweg Ecke Johannisthalerchaussee,autobus,"52.43169737,13.45951197",,,A52,Neukölln,Gropiusstadt,west
1965464,Rudowerstrasse Ecke Johannisthalerchaussee,autobus,"52.43433594,13.46904495",,,A52,Neukölln,Buckow,west
1965465,Efeuweg Ecke Rudowerstrasse,autobus,"52.42964562,13.47798792",,,A52,Neukölln,Rudow,west
1965466,Wildmeisterdamm Ecke Neuköllnerstrasse,autobus,"52.42576178,13.48322598",,,A52,Neukölln,Rudow,west
1965467,Köpenickerstrasse Ecke Neuköllnerstrasse,autobus,"52.41678547,13.49425005",,,A52,Neukölln,Rudow,west
1965468,Friedhof Rudow,autobus,"52.42113122,13.50319915",,,A52,Neukölln,Rudow,west
1965469,Mimosenweg Ecke Köpenickerstrasse,autobus,"52.42288858,13.50912841",,,A52,Neukölln,Rudow,west
1965470,Stubenraustrasse Ecke Kanalstrasse,autobus,"52.43167573,13.49524803",,,A52,Neukölln,Rudow,west
1965471,"Nikolassee, Alemannenstrasse",autobus,"52.42669871,13.19137081",,,A53,Steglitz-Zehlendorf,Nikolassee,west
1965472,Krottnauererstrasse Ecke Spanische Allee,autobus,"52.43404562,13.20665810",,,A53,Steglitz-Zehlendorf,Nikolassee,west
1965473,Waldemarplatz,autobus,"52.43775537,13.22018978",,,A53,Steglitz-Zehlendorf,Zehlendorf,west
1965474,Argentinischeallee Ecke Matterhornstrasse,autobus,"52.43689574,13.23140795",,,A53,Steglitz-Zehlendorf,Zehlendorf,west
1965475,Knesebeckstrasse Ecke Seehofstrasse,autobus,"52.42892135,13.26769723",,,A53,Steglitz-Zehlendorf,Zehlendorf,west
1965476,Dahlemerweg,autobus,"52.42634636,13.27683264",,,A53,Steglitz-Zehlendorf,Zehlendorf,west
1965477,4. Ring,autobus,"52.42250631,13.28694906",,,A53,Steglitz-Zehlendorf,Lichterfelde,west
1965478,Luzernerstrasse,autobus,"52.42403869,13.29291061",,,A53,Steglitz-Zehlendorf,Lichterfelde,west
1965479,Thunerplatz,autobus,"52.42373316,13.29626016",,,A53,Steglitz-Zehlendorf,Lichterfelde,west
1965480,Ostpreußendamm Ecke Königsbergerstrasse,autobus,"52.43081146,13.31748700",,,A53,Steglitz-Zehlendorf,Lichterfelde,west
1965481,Lankwitzerstrasse Ecke Königsbergerstrasse,autobus,"52.42780591,13.32637508",,,A53,Steglitz-Zehlendorf,Lichterfelde,west
1965482,"Grunewald, Roseneck",autobus,"52.47593599,13.28214054",,,A60,Charlottenburg-Wilmersdorf,Schmargendorf,west
1965483,Warnemünderstrasse Ecke Hundekehlestrasse,autobus,"52.47539579,13.29037056",,,A60,Charlottenburg-Wilmersdorf,Schmargendorf,west
1965484,Aoppoterstrasse Ecke Breitestrasse,autobus,"52.47327825,13.29894085",,,A60,Charlottenburg-Wilmersdorf,Wilmersdorf,west
1965485,Hamburgerstrasse Ecke Mecklenburgischestrasse,autobus,"52.47537517,13.30356645",,,A60,Charlottenburg-Wilmersdorf,Wilmersdorf,west
1965486,U-Bhf. Heidelbergerplatz,autobus,"52.48045045,13.31283560",,,A60,Charlottenburg-Wilmersdorf,Wilmersdorf,west
1965487,Brabanterplatz,autobus,"52.48197504,13.31612866",,,A60,Charlottenburg-Wilmersdorf,Wilmersdorf,west
1965488,Am Volkspark,autobus,"52.48322207,13.32036834",,,A60,Charlottenburg-Wilmersdorf,Wilmersdorf,west
1965489,Berlinerstrasse Ecke Blissestrasse,autobus,"52.48650431,13.32037437",,,A60,Charlottenburg-Wilmersdorf,Wilmersdorf,west
1965490,Postamt,autobus,"52.48905066,13.32277037",,,A60,Charlottenburg-Wilmersdorf,Wilmersdorf,west
1965491,Güntzelstrasse Ecke Uhlandstrasse,autobus,"52.49152414,13.32320274",,,A60,Charlottenburg-Wilmersdorf,Wilmersdorf,west
1965492,Ludwigkirchstrasse Ecke Uhlandstrasse,autobus,"52.49794390,13.32441187",,,A60,Charlottenburg-Wilmersdorf,Wilmersdorf,west
1965493,Kurfürstendamm Ecke Uhlandstrasse,autobus,"52.50251711,13.32521539",,,A60,Charlottenburg-Wilmersdorf,Charlottenburg,west
1965494,Zobeltitzstrasse Ecke Eichborndamm,autobus,"52.56961198,13.31256257",,,A61,Reinickendorf,Reinickendorf,west
1965495,"Reinickendorf, Sportplatz",autobus,"52.57376583,13.35206207",,,A61,Reinickendorf,Reinickendorf,west
1965496,Schillingstrasse Ecke Scharnweberstrasse,autobus,"52.56595210,13.32024014",,,A61,Reinickendorf,Reinickendorf,west
1965497,Humboldtstrasse Ecke Ollenhauerstrasse,autobus,"52.56924651,13.32987792",,,A61,Reinickendorf,Reinickendorf,west
1965498,Sebastianfriedhof,autobus,"52.57100250,13.33636094",,,A61,Reinickendorf,Reinickendorf,west
1965499,Teichstrasse Ecke Lindauerallee,autobus,"52.57438307,13.34770098",,,A61,Reinickendorf,Reinickendorf,west
1965500,Pankowerallee Ecke Residenzstrasse,autobus,"52.56384896,13.36424475",,,A61,Reinickendorf,Reinickendorf,west
1965500,Kurt-Schumacher-Platz,autobus,"52.56334132,13.32714462",,,A61,,,
1965501,Osloerstrasse Ecke Schwedenstrasse,autobus,"52.55665602,13.37386300",,,A61,Mitte,Gesundbrunnen,west
1965502,Exerzierstrasse Ecke Badstrasse,autobus,"52.55379747,13.37714659",,,A61,Mitte,Gesundbrunnen,west
1965503,Usedomerstrasse Ecke Brunnenstrasse,autobus,"52.54112092,13.39378151",,,A61,Mitte,Gesundbrunnen,west
1965504,Bernauerstrasse Ecke Brunnenstrasse,autobus,"52.53825329,13.39598562",,,A61,Mitte,Gesundbrunnen,west
1965505,Gartenplatz,autobus,"52.53856590,13.38400528",,,A61,Mitte,Gesundbrunnen,west
1965506,"Wittenau, Cyclopstrasse",autobus,"52.59725578,13.33260500",,,A62,Reinickendorf,Wittenau,west
1965507,Bonhoeffer-Heim,autobus,"52.57940413,13.33327468",,,A62,Reinickendorf,Wittenau,west
1965508,August-Viktoria-Allee Ecke Ollenhauerstrasse,autobus,"52.56925361,13.32991992",,,A62,Reinickendorf,Reinickendorf,west
1965509,Saatwinklerdamm Ecke Kurt-Schumacherdamm,autobus,"52.54801382,13.30054760",,,A62,Charlottenburg-Wilmersdorf,Charlottenburg-Nord,west
1965510,Olbersstrasse Ecke Tegelerweg,autobus,"52.52929187,13.29626447",,,A62,Charlottenburg-Wilmersdorf,Charlottenburg,west
1965511,Richard-Wagner-Platz,autobus,"52.51749099,13.30639710",,,A62,Charlottenburg-Wilmersdorf,Charlottenburg,west
1965512,Leibnizstrasse Ecke Otto-Suhr-Allee,autobus,"52.51466736,13.31516095",,,A62,Charlottenburg-Wilmersdorf,Charlottenburg,west
1965513,Marburgerstrasse Ecke Tauentzstrasse,autobus,"52.50374577,13.33767470",,,A62,Charlottenburg-Wilmersdorf,Charlottenburg,west
1965514,Radelandstrasse Ecke Niederheideweg,autobus,"52.56621908,13.15706778",,,A63,Spandau,Hakenfelde,west
1965515,Falkenseerchausee Ecke Zweibrückerstrasse,autobus,"52.54677033,13.18877220",,,A63,Spandau,Falkenhagener Feld,west
1965516,Falkenseerplatz,autobus,"52.54036212,13.20329943",,,A63,Spandau,Spandau,west
1965517,Am Juliusturm Ecke Breitestrasse,autobus,"52.53883445,13.20752168",,,A63,Spandau,Spandau,west
1965518,Hochgerichtstrasse Ecke Seegefelderstrasse,autobus,"52.53843535,13.18239370",,,A63,Spandau,Spandau,west
1965519,Seegefelderweg (Stadtgrenze),autobus,"52.54974478,13.12896856",,,A63,Spandau,Staaken,west
1965520,Vinetaplatz,autobus,"52.54113780,13.39842130",,,A64,Mitte,Gesundbrunnen,west
1965521,Demminerstrasse Ecke Brunnenstrasse,autobus,"52.54111761,13.39374567",,,A64,Mitte,Gesundbrunnen,west
1965522,Prinzenallee Ecke Badstrasse,autobus,"52.55228673,13.38144563",,,A64,Mitte,Gesundbrunnen,west
1965523,Schulstrasse Ecke Exerzierstrasse,autobus,"52.55396009,13.37150078",,,A64,Mitte,Gesundbrunnen,west
1965524,Reinickendorferstrasse Ecke Schulstrasse,autobus,"52.55156918,13.36734986",,,A64,Mitte,Wedding,west
1965525,Leopoldplatz,autobus,"52.54647397,13.35923348",,,A64,Mitte,Wedding,west
1965526,Antwerpenerstrasse Ecke Luxemburgerstrasse,autobus,"52.54411217,13.35493853",,,A64,Mitte,Wedding,west
1965527,Seestrasse Ecke Amrumerstrasse,autobus,"52.54624999,13.34402033",,,A64,Mitte,Wedding,west
1965528,Otawistrasse Ecke Afrikanischestrasse,autobus,"52.55252523,13.33695423",,,A64,Mitte,Wedding,west
1965529,Müllerstrasse Ecke Afrikanischestrasse,autobus,"52.56099646,13.33337509",,,A64,Mitte,Wedding,west
1965530,Holländerstrasse Ecke Septimerstrasse,autobus,"52.56428064,13.33860259",,,A64,Reinickendorf,Reinickendorf,west
1965531,Goebelplatz,autobus,"52.53812718,13.27991415",,,A65,Charlottenburg-Wilmersdorf,Charlottenburg-Nord,west
1965532,Kurt-Schumacherdamm Ecke Heckerdamm,autobus,"52.53963822,13.29511816",,,A65,Charlottenburg-Wilmersdorf,Charlottenburg-Nord,west
1965533,Jakob-Kaiser-Platz,autobus,"52.53673970,13.29360488",,,A65,Charlottenburg-Wilmersdorf,Charlottenburg-Nord,west
1965534,Spandauerdamm Ecke Stadtautobahn,autobus,"52.51857668,13.28324220",,,A65,Charlottenburg-Wilmersdorf,Charlottenburg,west
1965535,Messedamm/Kaiserdamm,autobus,"52.50999174,13.28179716",,,A65,Charlottenburg-Wilmersdorf,Westend,west
1965536,Hohenzollerndamm Ecke Stadtautobahn,autobus,"52.48792296,13.30056111",,,A65,Charlottenburg-Wilmersdorf,Wilmersdorf,west
1965537,Heidelbergerplatz,autobus,"52.48025668,13.31250043",,,A65,Charlottenburg-Wilmersdorf,Wilmersdorf,west
1965538,Blissestrasse Ecke Detmolderstrasse,autobus,"52.47880087,13.32030264",,,A65,Charlottenburg-Wilmersdorf,Wilmersdorf,west
1965539,Sachsendamm Ecke Eberstrasse,autobus,"52.48014721,13.35216118",,,A65,Tempelhof-Schöneberg,Schöneberg,east
1965540,Alboinstrasse Ecke Schönebergerstrasse,autobus,"52.46976839,13.37206381",,,A65,Tempelhof-Schöneberg,Tempelhof,west
1965541,Manteuffelstrasse Ecke Alt-Tempelhof,autobus,"52.46635995,13.37809676",,,A65,Tempelhof-Schöneberg,Tempelhof,west
1965542,Tempelhoferdamm Ecke Alt-Tempelhof,autobus,"52.46591642,13.38560642",,,A65,Tempelhof-Schöneberg,Tempelhof,west
1965543,Oberlandstrasse Ecke Germaniastrasse,autobus,"52.46346249,13.40208263",,,A65,Tempelhof-Schöneberg,Tempelhof,west
1965544,Hermannstrasse Ecke Silberstreinstrasse,autobus,"52.46642674,13.43196471",,,A65,Neukölln,Neukölln,east
1965545,Karl-Marx-Strasse Ecke Saalestrasse,autobus,"52.46972817,13.44159100",,,A65,Neukölln,Neukölln,east
1965546,Schulenburgpark,autobus,"52.46654457,13.47034123",,,A65,Neukölln,Neukölln,east
1965547,Düppel-Süd,autobus,"52.42123797,13.22684635",,,A66,Steglitz-Zehlendorf,Zehlendorf,west
1965548,Fercherstrasse Ecke Berlepschstrasse,autobus,"52.42335989,13.23473134",,,A66,Steglitz-Zehlendorf,Zehlendorf,west
1965549,Andreezeile Ecke Teltowerdamm,autobus,"52.41045731,13.26713203",,,A66,Steglitz-Zehlendorf,Zehlendorf,west
1965550,Clayallee Ecke Teltowerdamm,autobus,"52.43506597,13.26042887",,,A66,Steglitz-Zehlendorf,Zehlendorf,west
1965551,Schützallee Ecke Onkel-Tom-Strasse,autobus,"52.44062659,13.25520351",,,A66,Steglitz-Zehlendorf,Zehlendorf,west
1965552,Oranienstrasse Ecke Lindenstrasse,autobus,"52.50709187,13.39827273",,,A67,Friedrichshain-Kreuzberg,Kreuzberg,west
1965553,Moritzplatz,autobus,"52.50382794,13.41018325",,,A67,Friedrichshain-Kreuzberg,Kreuzberg,west
1965554,U-Bhf. Kottbusser Tor,autobus,"52.49912276,13.41824117",,,A67,Friedrichshain-Kreuzberg,Kreuzberg,west
1965555,Kottbusser Brücke,autobus,"52.49603084,13.42007040",,,A67,Friedrichshain-Kreuzberg,Kreuzberg,west
1965556,Hermannplatz,autobus,"52.48778873,13.42539348",,,A67,Neukölln,Neukölln,east
1965557,Erkstrasse Ecke Sonnenallee,autobus,"52.48167374,13.44011151",,,A67,Neukölln,Neukölln,east
1965558,Hertzbergplatz,autobus,"52.47754135,13.44849300",,,A67,Neukölln,Neukölln,east
1965559,Dammweg Ecke Sonnenallee,autobus,"52.47025948,13.46464808",,,A67,Neukölln,Neukölln,east
1965560,Neuköllnerallee Ecke Grenzallee,autobus,"52.46813425,13.46058472",,,A67,Neukölln,Neukölln,east
1965561,Am Oberhafen,autobus,"52.46501730,13.45059418",,,A67,Neukölln,Neukölln,east
1965562,U-Bhf. Grenzallee,autobus,"52.46369510,13.44423173",,,A67,Neukölln,Britz,west
1965563,Buschkrug,autobus,"52.45247090,13.45074820",,,A67,Neukölln,Britz,west
1965564,Onkel-Herse-Strasse Eke Buschkrugallee,autobus,"52.44826580,13.45393194",,,A67,Neukölln,Britz,west
1965565,Parchimerallee Ecke Buschkrugallee,autobus,"52.44508591,13.45520007",,,A67,Neukölln,Britz,west
1965566,Otto-Wels-Ring Ecke Str. 454,autobus,"52.43499737,13.45373288",,,A67,Neukölln,Gropiusstadt,west
1965567,Thielallee Ecke Königin-Luise-Strasse,autobus,"52.45813421,13.28704347",,,A68,Steglitz-Zehlendorf,Dahlem,west
1965568,U-Bhf. Dahlem-Dorf,autobus,"52.45807070,13.28970695",,,A68,Steglitz-Zehlendorf,Dahlem,west
1965569,Arnimallee Ecke Königin-Luise-Strasse,autobus,"52.45776572,13.29858724",,,A68,Steglitz-Zehlendorf,Dahlem,west
1965570,Lepsiusstrasse Ecke Grunewaldstrasse,autobus,"52.45878275,13.31560706",,,A68,Steglitz-Zehlendorf,Steglitz,west
1965571,Breitestrasse Ecke Albrechtstrasse,autobus,"52.45436072,13.32829610",,,A68,Steglitz-Zehlendorf,Steglitz,west
1965572,Bismarckstrasse Ecke Bergstrasse,autobus,"52.45863794,13.33929802",,,A68,Steglitz-Zehlendorf,Steglitz,west
1965573,Munsterdamm Ecke Bergstrasse,autobus,"52.45910801,13.34873117",,,A68,Tempelhof-Schöneberg,Schöneberg,east
1965574,Alboinstrasse Ecke Arnulfstrasse,autobus,"52.45573855,13.36988790",,,A68,Tempelhof-Schöneberg,Schöneberg,east
1965575,Tempelhoferdamm Ecke Friedrich-Karl-Strasse,autobus,"52.45579853,13.38396054",,,A68,Tempelhof-Schöneberg,Tempelhof,west
1965576,Kaiserin-Augusta-Strasse,autobus,"52.45936602,13.38446422",,,A68,Tempelhof-Schöneberg,Tempelhof,west
1965577,Alt-Tempelhof Ecke Tempelhoferdamm,autobus,"52.46601300,13.38558828",,,A68,Tempelhof-Schöneberg,Tempelhof,west
1965578,U-Bhf. Tempelhof,autobus,"52.46987510,13.38558706",,,A68,Tempelhof-Schöneberg,Tempelhof,west
1965579,Eichkamp,autobus,"52.48991827,13.25954128",,,A69,Charlottenburg-Wilmersdorf,Westend,west
1965580,Trabenerstrasse Ecke Halenseestrasse,autobus,"52.49735494,13.28272174",,,A69,Charlottenburg-Wilmersdorf,Grunewald,west
1965581,Bleibtreustrasse Ecke Kurfürstendamm,autobus,"52.50160348,13.31946411",,,A69,Charlottenburg-Wilmersdorf,Charlottenburg,west
1965582,Nürnbergerstrasse Ecke Kurfürstenstrasse,autobus,"52.50512043,13.34120096",,,A69,Mitte,Tiergarten,west
1965583,An der Urania,autobus,"52.50313264,13.34990933",,,A69,Mitte,Tiergarten,west
1965584,Tiergartenstrasse Ecke Klingelhöferstrasse,autobus,"52.50956693,13.35136665",,,A69,Mitte,Tiergarten,west
1965585,Kongreßhalle,autobus,"52.51763253,13.36319698",,,A69,Mitte,Tiergarten,west
1965586,John-Foster-Dulles-Allee Ecke Neue Verbindungsstrasse,autobus,"52.51741103,13.37050573",,,A69,Mitte,Tiergarten,west
1965587,Moltkebrücke,autobus,"52.52163755,13.36922927",,,A69,Mitte,Tiergarten,west
1965588,"Wollankstrasse, Sektorengrenze",autobus,"52.56559871,13.39083019",,,A70,Mitte,Gesundbrunnen,west
1965589,Soldinerstrasse Ecke Prinzenallee,autobus,"52.55868402,13.38625492",,,A70,Mitte,Gesundbrunnen,west
1965590,Osloerstrasse Ecke Prinzenallee,autobus,"52.55531797,13.38384006",,,A70,Mitte,Gesundbrunnen,west
1965591,Badstrasse Ecke Pankstrasse,autobus,"52.55228518,13.38146632",,,A70,Mitte,Gesundbrunnen,west
1965592,Wiesenstrasse Ecke Pankstrasse,autobus,"52.54760177,13.37388377",,,A70,Mitte,Gesundbrunnen,west
1965593,Ravenéstrasse Ecke Reinickendorferstrasse,autobus,"52.54285307,13.36977037",,,A70,Mitte,Wedding,west
1965594,Weddingplatz,autobus,"52.54113612,13.36850103",,,A70,Mitte,Wedding,west
1965595,Tegelerstrasse Ecke Fennstrasse,autobus,"52.53790109,13.36161851",,,A70,Mitte,Wedding,west
1965596,Rathenowerstrasse Ecke Perlebergerstrasse,autobus,"52.53247559,13.35058625",,,A70,Mitte,Moabit,west
1965597,Turmstrasse Ecke Rathenowerstrasse,autobus,"52.52677327,13.35526322",,,A70,Mitte,Moabit,west
1965598,Krankenhaus Moabit,autobus,"52.52631364,13.34776241",,,A70,Mitte,Moabit,west
1965599,Rathaus Tiergarten,autobus,"52.52649086,13.33835898",,,A70,Mitte,Moabit,west
1965600,Berlichingenstrasse Ecke Huttenstrassse,autobus,"52.52782924,13.32479771",,,A70,Mitte,Moabit,west
1965601,Wiebestrasse Ecke Turmstrasse,autobus,"52.52836900,13.31942444",,,A70,Mitte,Moabit,west
1965602,"Wilhelmsruh, Kopenhagenerstrasse",autobus,"52.58389051,13.36547285",,,A71,Pankow,Wilhelmsruh,east
1965603,Lindauerallee Ecke Residenzstrasse,autobus,"52.57335465,13.35896485",,,A71,Reinickendorf,Reinickendorf,west
1965604,Emmentalerstrasse Ecke Residenzstrasse,autobus,"52.57036326,13.36089423",,,A71,Reinickendorf,Reinickendorf,west
1965605,Schäfersee,autobus,"52.56412403,13.36412797",,,A71,Reinickendorf,Reinickendorf,west
1965606,Reginhardstrasse Ecke Pankowerallee,autobus,"52.56431243,13.37349062",,,A71,Reinickendorf,Reinickendorf,west
1965607,Provinzstrasse Ecke Pankowerallee,autobus,"52.56468577,13.37805639",,,A71,Reinickendorf,Reinickendorf,west
1965608,Ritterlandweg Ecke Soldinerstrasse,autobus,"52.56075604,13.37703412",,,A71,Reinickendorf,Reinickendorf,west
1965609,Prinzenallee Ecke Soldinerstrasse,autobus,"52.55868935,13.38625549",,,A71,Mitte,Gesundbrunnen,west
1965610,Ramlerstrasse Ecke Brunnenstrasse,autobus,"52.54710870,13.38914654",,,A71,Mitte,Gesundbrunnen,west
1965611,Gustav-Meyer-Allee Ecke Brunnenstrasse,autobus,"52.54467816,13.39104867",,,A71,Mitte,Gesundbrunnen,west
1965612,Residenzstrasse Ecke Klemkestrasse,autobus,"52.57424589,13.35915138",,,A72,Reinickendorf,Reinickendorf,west
1965613,Residenzstrasse Ecke Lindauerallee,autobus,"52.57335472,13.35894171",,,A72,Reinickendorf,Reinickendorf,west
1965614,Louise-Schroeder-Platz,autobus,"52.55713317,13.36551369",,,A72,Mitte,Wedding,west
1965615,Nauener Platz,autobus,"52.55155262,13.36737073",,,A72,Mitte,Wedding,west
1965616,Pankstrasse Ecke Reinickendorferstrasse,autobus,"52.54523194,13.37050345",,,A72,Mitte,Wedding,west
1965617,Heidestrasse Ecke Perlebergerstrasse,autobus,"52.53729390,13.36028117",,,A72,Mitte,Moabit,west
1965618,Turmstrasse Ecke Stromstrasse,autobus,"52.52631574,13.34320006",,,A72,Mitte,Moabit,west
1965619,Wiebestrasse Ecke Huttenstrasse,autobus,"52.52836900,13.31942444",,,A72,Mitte,Moabit,west
1965620,Tauroggenerstrasse Ecke Osnabrückerstrasse,autobus,"52.52585108,13.30194744",,,A72,Charlottenburg-Wilmersdorf,Charlottenburg,west
1965621,Landgericht,autobus,"52.52698926,13.29716765",,,A72,Charlottenburg-Wilmersdorf,Charlottenburg,west
1965622,Quellweg Ecke Nonnendammallee,autobus,"52.53667861,13.26845965",,,A72,Spandau,Siemensstadt,west
1965623,Rathenowerstrasse Ecke Perlebergerstrasse,autobus,"52.53248788,13.35054677",,,A72,,,
1965623,Paulsternstrasse Ecke Nonnendammallee,autobus,"52.53816405,13.24773771",,,A72,Mitte,Moabit,west
1965624,Gartenfeld,autobus,"52.54719055,13.24779333",,,A72,Spandau,Haselhorst,west
1965625,Kurfürstendamm Ecke Tauentzienstrasse,autobus,"52.50442326,13.33565780",,,A73,Charlottenburg-Wilmersdorf,Charlottenburg,west
1965626,Motzstrasse Ecke Kleiststrasse,autobus,"52.49965229,13.35335875",,,A73,Tempelhof-Schöneberg,Schöneberg,east
1965627,Grunewaldstrasse Ecke Martin-Luther-Strasse,autobus,"52.48905218,13.34501538",,,A73,Tempelhof-Schöneberg,Schöneberg,east
1965628,Ebersstrasse Ecke Dominicusstrasse,autobus,"52.48014768,13.35214638",,,A73,Tempelhof-Schöneberg,Schöneberg,east
1965629,Reichartstrasse Ecke Sachsendamm,autobus,"52.47272490,13.36648096",,,A73,Tempelhof-Schöneberg,Schöneberg,east
1965630,Berlinickeplatz,autobus,"52.46607292,13.37851641",,,A73,Tempelhof-Schöneberg,Tempelhof,west
1965631,Rohdestrasse Ecke Germaniastrasse,autobus,"52.46205027,13.40440412",,,A73,Tempelhof-Schöneberg,Tempelhof,west
1965632,Gottlieb-Dunkel-Strasse Ecke Germaniastrasse,autobus,"52.46056888,13.41797540",,,A73,Tempelhof-Schöneberg,Tempelhof,west
1965633,Britzerdamm Ecke Gradestrasse,autobus,"52.45263536,13.43855969",,,A73,Neukölln,Britz,west
1965634,U-Bhf. Blaschko-Allee,autobus,"52.45247827,13.44899996",,,A73,Neukölln,Britz,west
1965635,"Britz, Buschkrug",autobus,"52.45251852,13.45212388",,,A73,Neukölln,Britz,west
1965636,Königin-Elisabeth-Strasse/Messedamm,autobus,"52.51000392,13.28183577",,,A74,Charlottenburg-Wilmersdorf,Westend,west
1965637,Spandauerdamm Ecke Königin-Elisabeth-Strasse,autobus,"52.51839539,13.28021270",,,A74,Charlottenburg-Wilmersdorf,Westend,west
1965638,Klausenerplatz,autobus,"52.51924427,13.29194874",,,A74,Charlottenburg-Wilmersdorf,Charlottenburg,west
1965639,Schloßstrasse Ecke Seelingstrasse,autobus,"52.51566300,13.29654868",,,A74,Charlottenburg-Wilmersdorf,Charlottenburg,west
1965640,Sophie-Charlotte-Platz,autobus,"52.51083333,13.29666667",,Q657879,A74,Charlottenburg-Wilmersdorf,Charlottenburg,west
1965641,Kaiser-Friedrich-Strasse Ecke Kantstrasse,autobus,"52.50678591,13.30232482",,,A74,Charlottenburg-Wilmersdorf,Charlottenburg,west
1965642,Kurfürstendamm Ecke Wilmersdorferstrasse,autobus,"52.50001126,13.30714351",,,A74,Charlottenburg-Wilmersdorf,Charlottenburg,west
1965643,Fehrbelliner Platz,autobus,"52.49040639,13.31420422",,,A74,Charlottenburg-Wilmersdorf,Wilmersdorf,west
1965644,Bundesallee Ecke Berlinerstrasse,autobus,"52.48732558,13.33098413",,,A74,Charlottenburg-Wilmersdorf,Wilmersdorf,west
1965645,Martin-Luther-Strasse Ecke Grunewaldstrasse,autobus,"52.48910174,13.34492201",,,A74,Tempelhof-Schöneberg,Schöneberg,east
1965646,Egelingzeile,autobus,"52.46359357,13.37006890",,,A74,Tempelhof-Schöneberg,Schöneberg,east
1965647,"Lindenhof, Eythstrasse",autobus,"52.45972284,13.36642830",,,A74,Tempelhof-Schöneberg,Schöneberg,east
1965648,Munsterdamm Ecke Steglitzerdamm,autobus,"52.45000526,13.34672202",,,A75,Steglitz-Zehlendorf,Steglitz,west
1965649,Bismarckstrasse Ecke Steglitzerdamm,autobus,"52.45107274,13.33791199",,,A75,Steglitz-Zehlendorf,Steglitz,west
1965650,Lauenburgerplatz,autobus,"52.46159988,13.33932524",,,A75,Steglitz-Zehlendorf,Steglitz,west
1965651,Dominicusstrasse Ecke Hauptstrasse,autobus,"52.48180072,13.34837800",,,A75,Tempelhof-Schöneberg,Schöneberg,east
1965652,Am Karlsbad,autobus,"52.50551053,13.36801582",,,A75,Mitte,Tiergarten,west
1965653,Oranienstrasse Ecke Kochstrasse,autobus,"52.50709133,13.39827714",,,A75,Friedrichshain-Kreuzberg,Kreuzberg,west
1965654,Spreewaldplatz,autobus,"52.49746663,13.43173833",,,A75,Friedrichshain-Kreuzberg,Kreuzberg,west
1965655,Sonnenallee Ecke Pannierstrasse,autobus,"52.48609620,13.43021786",,,A75,Neukölln,Neukölln,east
1965656,Blohmstrasse Ecke Wünsdorferstrasse,autobus,"52.38867997,13.39435043",,,A76,Tempelhof-Schöneberg,Lichtenrade,west
1965657,Bahnhofstrasse Ecke Prinzesssinnenstrasse,autobus,"52.38668922,13.39674308",,,A76,Tempelhof-Schöneberg,Lichtenrade,west
1965658,Marienfelderstrasse Ecke Lichtenraderdamm,autobus,"52.39246195,13.40672267",,,A76,Tempelhof-Schöneberg,Lichtenrade,west
1965659,Tauernallee Ecke Mariendorferdamm,autobus,"52.42332668,13.39618311",,,A76,Tempelhof-Schöneberg,Mariendorf,west
1965660,"Rennbahn, Mariendorferdamm",autobus,"52.43151989,13.39150823",,,A76,Tempelhof-Schöneberg,Mariendorf,west
1965661,Alt-Mariendorf Ecke Mariendorferdamm,autobus,"52.44016815,13.38721341",,,A76,Tempelhof-Schöneberg,Mariendorf,west
1965662,Burgemeisterstrasse Ecke Tempelhoferdamm,autobus,"52.45702094,13.38394001",,,A76,Tempelhof-Schöneberg,Tempelhof,west
1965663,Thuyring Ecke Tempelhoferdamm,autobus,"52.47485480,13.38574214",,,A76,Tempelhof-Schöneberg,Tempelhof,west
1965664,Bayernring Ecke Tempelhoferdamm,autobus,"52.48160551,13.38587377",,,A76,Tempelhof-Schöneberg,Tempelhof,west
1965665,Platz der Luftbrücke,autobus,"52.48500811,13.38598451",,,A76,Friedrichshain-Kreuzberg,Kreuzberg,west
1965666,"Marienfelde, Daimlerstrasse",autobus,"52.42310029,13.38271915",,,A77,Tempelhof-Schöneberg,Marienfelde,west
1965667,Großbeerenstrasse Ecke Daimlerstrasse,autobus,"52.42632723,13.37438167",,,A77,Tempelhof-Schöneberg,Marienfelde,west
1965668,Körtingstrasse Ecke Großbeerenstrasse,autobus,"52.43481353,13.37831564",,,A77,Tempelhof-Schöneberg,Mariendorf,west
1965669,Mariendorferdamm Ecke Alt-Mariendorf,autobus,"52.44016441,13.38732183",,,A77,Tempelhof-Schöneberg,Mariendorf,west
1965670,Markgrafenstrasse Ecke Mariendorferdamm,autobus,"52.45018182,13.38492769",,,A77,Tempelhof-Schöneberg,Mariendorf,west
1965671,Rathaus Tempelhof,autobus,"52.46300094,13.38534224",,,A77,Tempelhof-Schöneberg,Tempelhof,west
1965672,Paradestrasse Ecke Tempelhoferdamm,autobus,"52.47819508,13.38582477",,,A77,Tempelhof-Schöneberg,Tempelhof,west
1965673,Tropfsteinweg Ecke Quarzweg,autobus,"52.42357623,13.41467087",,,A78,Neukölln,Buckow,west
1965674,Tauernallee Ecke Quarzweg,autobus,"52.42788188,13.40510195",,,A78,Tempelhof-Schöneberg,Mariendorf,west
1965675,Mariendorferdamm Ecke Tauernallee,autobus,"52.42330592,13.39614258",,,A78,Tempelhof-Schöneberg,Mariendorf,west
1965676,Rennbahn,autobus,"52.43151989,13.39150823",,,A78,Tempelhof-Schöneberg,Mariendorf,west
1965677,U-Bhf. Leopoldplatz,autobus,"52.54639075,13.35913321",,,A79,Tempelhof-Schöneberg,Tempelhof,west
1965677,Burgemeisterstrasse Ecke Tempelhoferdamm,autobus,"52.45702094,13.38394001",,,A77,,,
1965678,Pankowerallee Ecke Reginhardstrasse,autobus,"52.56432609,13.37350010",,,A79,Reinickendorf,Reinickendorf,west
1965679,Hausotterstrasse Ecke Reginhardstrasse,autobus,"52.56824258,13.37256899",,,A79,Reinickendorf,Reinickendorf,west
1965680,Büdnerring Ecke Emmentalerstrasse,autobus,"52.57363649,13.36780545",,,A79,Reinickendorf,Reinickendorf,west
1965681,Somerstrasse Ecke Klemkestrasse,autobus,"52.57476725,13.37353054",,,A79,Reinickendorf,Reinickendorf,west
1965682,Breitestrasse Ecke Marktstrasse,autobus,"52.53688328,13.20531643",,,A80,Spandau,Spandau,west
1965683,Nauenerstrasse Ecke Brunsbüttelerdamm,autobus,"52.53406507,13.18169672",,,A80,Spandau,Spandau,west
1965684,Egelpfuhlstrasse Ecke Brunsbüttelerdamm,autobus,"52.53353493,13.16940853",,,A80,Spandau,Spandau,west
1965685,Nennhauserdamm Ecke Brunsbüttelerdamm,autobus,"52.53251629,13.14156536",,,A80,Spandau,Staaken,west
1965686,U-Bhf. Spichernstrasse,autobus,"52.49666209,13.33063500",,"nan, nan",A81,Charlottenburg-Wilmersdorf,Wilmersdorf,west
1965687,Schloßstrasse Ecke Feuerbachstrasse,autobus,"52.46311733,13.32672483",,,A81,Steglitz-Zehlendorf,Steglitz,west
1965688,Steglitzerdamm Ecke Bismarckstrasse,autobus,"52.45108585,13.33790127",,,A81,Steglitz-Zehlendorf,Steglitz,west
1965689,Alt-Lankwitz Dorfaue,autobus,"52.43908383,13.35441775",,,A81,Steglitz-Zehlendorf,Lankwitz,west
1965690,Imbrosweg Ecke Rixdorferstrasse,autobus,"52.44350787,13.39864167",,,A81,Tempelhof-Schöneberg,Mariendorf,west
1965691,Dardanellenweg Ecke Rixdorferstrasse,autobus,"52.44495402,13.40008867",,,A81,Tempelhof-Schöneberg,Mariendorf,west
1965692,Nettelbeckplatz,autobus,"52.54464512,13.37015454",,,A83,Mitte,Wedding,west
1965693,Heidestrasse Ecke Fennstrasse,autobus,"52.53731772,13.36029323",,,A83,Mitte,Moabit,west
1965694,Friedrich-Wilhelm-Platz,autobus,"52.47231413,13.32817044",,,A81,,,
1965694,Washingtonplatz,autobus,"52.52421576,13.37059958",,,A83,Tempelhof-Schöneberg,Friedenau,west
1965695,Potsdamerstrasse Ecke Neue Verbindungsstrasse,autobus,"52.50917801,13.37176335",,,A83,Mitte,Tiergarten,west
1965696,Reichpietsch Ufer Ecke Potsdamerstrasse,autobus,"52.50626666,13.36847203",,,A83,Mitte,Tiergarten,west
1965697,Schöneberger Ufer Ecke Potsdamerstrasse,autobus,"52.50582420,13.36822756",,,A83,Steglitz-Zehlendorf,Lankwitz,west
1965697,Leonorenstrasse Ecke Siemensstrasse,autobus,"52.44439811,13.33894287",,,A81,,,
1965698,Bülowstrasse Ecke Potsdamerstrasse,autobus,"52.49780937,13.36202312",,,A83,Tempelhof-Schöneberg,Schöneberg,east
1965699,Martin-Luther-Strasse Ecke Hauptstrasse,autobus,"52.47919735,13.34495863",,,A83,Tempelhof-Schöneberg,Schöneberg,east
1965700,"Grazer Platz, Rubensstrasse",autobus,"52.46714419,13.34418649",,,A83,Tempelhof-Schöneberg,Schöneberg,east
1965701,Bergstrasse Ecke Thorwaldsenstrasse,autobus,"52.45916615,13.34768499",,,A83,Steglitz-Zehlendorf,Steglitz,west
1965702,Steglitzerdamm Ecke Munsterdamm,autobus,"52.45000608,13.34672706",,,A83,Steglitz-Zehlendorf,Steglitz,west
1965703,Albrechtstrasse Ecke Siemensstrasse,autobus,"52.44697413,13.34238318",,,A83,Steglitz-Zehlendorf,Steglitz,west
1965704,Malteserstrasse Ecke Paul-Schneiderstrasse,autobus,"52.43337314,13.35303713",,,A83,Steglitz-Zehlendorf,Lankwitz,west
1965705,Preysingstresse Ecke Malteserstrasse,autobus,"52.42459385,13.35671085",,,A83,Steglitz-Zehlendorf,Lankwitz,west
1965706,Belßstrasse Ecke Wichurastrasse,autobus,"52.42825963,13.36268315",,,A83,Steglitz-Zehlendorf,Lankwitz,west
1965707,Ringstrasse Ecke Pestalozzistrasse,autobus,"52.43272276,13.28707174",,,A84,Steglitz-Zehlendorf,Lichterfelde,west
1965708,Kadettenweg Ecke Finckensteinallee,autobus,"52.43244907,13.29922143",,,A84,Steglitz-Zehlendorf,Lichterfelde,west
1965709,Krahmerstrasse Ecke Hindenburgdamm,autobus,"52.43785561,13.31567297",,,A84,Steglitz-Zehlendorf,Lichterfelde,west
1965710,Klingsorstrasse Ecke Hindenburgerdamm,autobus,"52.44312155,13.31569756",,,A84,Steglitz-Zehlendorf,Lichterfelde,west
1965711,Händelplatz,autobus,"52.45066566,13.31587443",,,A84,Steglitz-Zehlendorf,Lichterfelde,west
1965712,Unter den Eichen Ecke Hindenburgdamm,autobus,"52.45347005,13.31556961",,,A84,Steglitz-Zehlendorf,Steglitz,west
1965713,Schloßstrasse Ecke Hindenburgerdamm,autobus,"52.45350913,13.31567768",,,A84,Steglitz-Zehlendorf,Steglitz,west
1965714,Florastrasse Ecke Schloßstrasse,autobus,"52.46144282,13.32517793",,,A84,Steglitz-Zehlendorf,Steglitz,west
1965715,Bundesallee Ecke Rheinstrasse,autobus,"52.46493424,13.32843851",,,A84,Tempelhof-Schöneberg,Friedenau,west
1965716,Gotenstrasse Ecke Torgauerstrasse,autobus,"52.47978047,13.36019236",,,A84,Tempelhof-Schöneberg,Schöneberg,east
1965717,Motzstrasse Ecke Martin-Luther-Strasse,autobus,"52.49712618,13.34610186",,,A85,Tempelhof-Schöneberg,Schöneberg,east
1965718,Bayerischer Platz,autobus,"52.48833333,13.34027778",,Q668574,A85,Steglitz-Zehlendorf,Lichterfelde,west
1965718,Wiesenbaude,autobus,"52.43137099,13.30959805",,,A84,,,
1965719,Hildegardstrasse Ecke Bundesallee,autobus,"52.48165724,13.32942778",,,A85,Charlottenburg-Wilmersdorf,Wilmersdorf,west
1965720,Schildhornstrasse Ecke Schoßstrasse,autobus,"52.46148081,13.32506744",,,A85,Steglitz-Zehlendorf,Steglitz,west
1965721,Moltkestrasse Ecke Gardeschützenweg,autobus,"52.44677332,13.30673860",,,A85,Steglitz-Zehlendorf,Lichterfelde,west
1965722,Drakestrasse Ecke Gardeschützenweg,autobus,"52.44269018,13.29700526",,,A85,Steglitz-Zehlendorf,Lichterfelde,west
1965723,Rittberg-Krankenhaus,autobus,"52.42987952,13.28896146",,,A85,Steglitz-Zehlendorf,Lichterfelde,west
1965724,Thuner Platz,autobus,"52.42375897,13.29618487",,,A85,Steglitz-Zehlendorf,Lichterfelde,west
1965725,Goerzallee Ecke Wismarerstrasse,autobus,"52.42197343,13.29844428",,,A85,Steglitz-Zehlendorf,Lichterfelde,west
1965726,Ostpreußendamm Ecke Wismarerstrasse,autobus,"52.41787023,13.30519617",,,A85,Steglitz-Zehlendorf,Lichterfelde,west
1965727,Holtheimer Weg Ecke Wormbacher Weg,autobus,"52.40993905,13.30336414",,,A85,Steglitz-Zehlendorf,Lichterfelde,west
1965728,Invalidenstrasse (Sektorengrenze),autobus,"52.52731343,13.37206043",,,A86,Mitte,Moabit,west
1965729,Rathenowerstrasse Ecke Alt-Moabit,autobus,"52.52363005,13.35684871",,,A86,Charlottenburg-Wilmersdorf,Wilmersdorf,west
1965729,Bundesallee Ecke Berlinerstraße,autobus,"52.48734067,13.33098765",,,A85,,,
1965730,Stromstrasse Ecke Alt-Moabit,autobus,"52.52539702,13.34278622",,,A86,Mitte,Moabit,west
1965731,Gotzkowskystrasse Ecke Alt-Moabit,autobus,"52.52381416,13.32973099",,,A86,Mitte,Moabit,west
1965732,Helmholtzstrasse Ecke Franklinstrasse,autobus,"52.52234318,13.32844863",,,A86,Charlottenburg-Wilmersdorf,Charlottenburg,west
1965733,Cauerstrasse Ecke Otto-Suhr-Allee,autobus,"52.51469847,13.31523032",,,A86,Charlottenburg-Wilmersdorf,Charlottenburg,west
1965734,Kantstrasse Ecke Wilmersdorferstrasse,autobus,"52.50670639,13.30668035",,,A86,Charlottenburg-Wilmersdorf,Charlottenburg,west
1965735,Kurfürstendamm Ecke Brandenburgischestrasse,autobus,"52.50002234,13.30701910",,,A86,Charlottenburg-Wilmersdorf,Charlottenburg,west
1965736,Konstanzerstrasse Ecke Brandenburgischestrasse,autobus,"52.49354591,13.31007243",,,A86,Charlottenburg-Wilmersdorf,Wilmersdorf,west
1965737,Blissestrasse Ecke Mecklenburgischestrasse,autobus,"52.48368070,13.32024441",,,A86,Charlottenburg-Wilmersdorf,Wilmersdorf,west
1965738,Schildhornstrasse Ecke Schloßstrasse,autobus,"52.46147802,13.32512191",,,A86,Steglitz-Zehlendorf,Steglitz,west
1965739,Gardeschützenweg Ecke Hindenburgdamm,autobus,"52.44961307,13.31533099",,,A86,Steglitz-Zehlendorf,Lichterfelde,west
1965740,Klingsorstrasse Ecke Birkbuschstrasse,autobus,"52.44752909,13.32632316",,,A86,Steglitz-Zehlendorf,Steglitz,west
1965741,Birkbuschstrasse Ecke Siemensstrasse,autobus,"52.44243904,13.33208217",,,A86,Steglitz-Zehlendorf,Lankwitz,west
1965742,Wilmersdorferstrasse Ecke Otto-Suhr-Allee,autobus,"52.51811241,13.30443482",,,A87,Charlottenburg-Wilmersdorf,Charlottenburg,west
1965743,"Luisenplatz, Spandauer Damm",autobus,"52.51959199,13.29891202",,,A87,Charlottenburg-Wilmersdorf,Charlottenburg,west
1965744,Schloßstrasse Ecke Spandauer Damm,autobus,"52.51945635,13.29594131",,,A87,Charlottenburg-Wilmersdorf,Charlottenburg,west
1965745,Sophie-Charlotten-Strasse Ecke Spandauer Damm,autobus,"52.51877597,13.28665640",,,A87,Charlottenburg-Wilmersdorf,Charlottenburg,west
1965746,Pulsstrasse Ecke Sophie-Charlotten-Strasse,autobus,"52.52421632,13.28505878",,,A87,Charlottenburg-Wilmersdorf,Charlottenburg,west
1965747,Neue-Kantstrasse Ecke Messedamm,autobus,"52.50645040,13.28034752",,,A88,Charlottenburg-Wilmersdorf,Westend,west
1965748,Halenseestrasse Ecke Messedamm,autobus,"52.50358004,13.27899377",,,A88,Charlottenburg-Wilmersdorf,Westend,west
1965749,Deutschland-Halle,autobus,"52.49876605,13.27206768",,,A88,Charlottenburg-Wilmersdorf,Westend,west
1965750,Eichkamp (Alte Allee),autobus,"52.49184466,13.26343585",,,A88,Charlottenburg-Wilmersdorf,Westend,west
1965751,Bornholmer Brücke (Sektorengrenze),autobus,"52.55474925,13.39756390",,,A89,Pankow,Prenzlauer Berg,east
1965752,Prinzenallee Ecke Osloerstrasse,autobus,"52.55595531,13.38435069",,,A89,Mitte,Gesundbrunnen,west
1965753,Koloniestrasse Ecke Osloerstrasse,autobus,"52.55645881,13.37766712",,,A89,Mitte,Gesundbrunnen,west
1965754,Schwedenstrasse Ecke Osloerstrasse,autobus,"52.55674734,13.37371279",,,A89,Mitte,Gesundbrunnen,west
1965755,Reinickendorferstrasse Ecke Osloerstrasse,autobus,"52.55695941,13.36559908",,,A89,Mitte,Wedding,west
1965756,Afrikanischestrasse Ecke Seestrasse,autobus,"52.54623694,13.34393083",,,A89,Mitte,Wedding,west
1965757,Saatwinkler Damm/Beusselstrasse,autobus,"52.53817455,13.32617083",,,A89,Charlottenburg-Wilmersdorf,Charlottenburg-Nord,west
1965758,Beusselstrasse Ecke Sickingenstrasse,autobus,"52.53296894,13.32844750",,,A89,Mitte,Moabit,west
1965759,Huttenstrasse Ecke Beusselstrasse,autobus,"52.52740013,13.32867332",,,A89,Mitte,Moabit,west
1965760,Huttenstrasse Ecke Wiebestrasse,autobus,"52.52837370,13.31943360",,,A89,Mitte,Moabit,west
1965761,Wiebestrasse Ecke Kaiserin-Augusta-Allee,autobus,"52.52580214,13.31797917",,,A89,Mitte,Moabit,west
1965762,Otto-Suhr-Allee Ecke Wilmersdorferstrasse,autobus,"52.51807977,13.30444555",,,A89,Charlottenburg-Wilmersdorf,Charlottenburg,west
1965763,Blissestrasse Ecke Brandenburgischestrasse,autobus,"52.48651073,13.32032803",,,A89,Charlottenburg-Wilmersdorf,Wilmersdorf,west
1965764,Uhlandstrasse Ecke Berlinerstrasse,autobus,"52.48648130,13.32250148",,,A89,Charlottenburg-Wilmersdorf,Wilmersdorf,west
1965765,Potsdamerstrasse Ecke Pallasstrasse,autobus,"52.49431875,13.36100643",,,A89,Tempelhof-Schöneberg,Schöneberg,east
1965766,Kulmerstrasse Ecke Goebenstrasse,autobus,"52.49358859,13.36586990",,,A89,Tempelhof-Schöneberg,Schöneberg,east
1965767,Großbeerenstrasse Ecke Yorckstrasse,autobus,"52.49368808,13.38355154",,,A89,Friedrichshain-Kreuzberg,Kreuzberg,west
1965768,U-Bhf. Gneisenaustrasse,autobus,"52.49122659,13.39632791",,,A89,Friedrichshain-Kreuzberg,Kreuzberg,west
1965769,Zossenerstrasse Ecke Blücherstrasse,autobus,"52.49623241,13.39508019",,,A89,Friedrichshain-Kreuzberg,Kreuzberg,west
1965770,Mehringplatz,autobus,"52.49827538,13.39190927",,,A89,Friedrichshain-Kreuzberg,Kreuzberg,west
1965771,Alt-Moabit Ecke Gotzkowskystrasse,autobus,"52.52377876,13.32973510",,"nan, nan",A90,Mitte,Moabit,west
1965772,"U-Bhf. Turmstrasse, Alt-Moabit",autobus,"52.52562203,13.34119684",,,A90,Mitte,Moabit,west
1965773,Kirchstrasse Ecke Alt-Moabit,autobus,"52.52454036,13.34955441",,,A90,Mitte,Moabit,west
1965774,Perlebergerstrasse Ecke Rathenowerstrasse,autobus,"52.53251179,13.35056076",,,A90,Mitte,Moabit,west
1965775,Am Nordhafen,autobus,"52.53868316,13.36324841",,,A90,Mitte,Wedding,west
1965776,Gartenstrasse & Grenzstrasse,autobus,"52.54181102,13.37807511",,,A90,Mitte,Gesundbrunnen,west
1965777,Wattstrasse Ecke Usedomerstrasse,autobus,"52.54025184,13.39064471",,,A90,Charlottenburg-Wilmersdorf,Wilmersdorf,west
1965777,Bundesallee Ecke Berlinerstrasse,autobus,"52.48734717,13.33092701",,,A89,,,
1965778,U-Bhf. Leinestrasse,autobus,"52.47263483,13.42855206",,,A91,Tempelhof-Schöneberg,Schöneberg,east
1965778,Martin-Luther-Strasse Ecke Grunewaldstrasse,autobus,"52.48909225,13.34497707",,,A89,,,
1965779,Siegfriedstrasse Ecke Hermannstrasse,autobus,"52.46787567,13.43109511",,,A91,Neukölln,Neukölln,east
1965780,Mariendorfer Weg Ecke Hermannstrasse,autobus,"52.46469159,13.43289078",,,A91,Neukölln,Neukölln,east
1965781,Germaniapromenade Ecke Britzerdamm,autobus,"52.46087492,13.43504314",,,A91,Neukölln,Britz,west
1965782,Franz-Körnerstrasse Ecke Britzerdamm,autobus,"52.45591015,13.43724797",,,A91,Neukölln,Britz,west
1965783,Gradestrasse Ecke Britzerdamm,autobus,"52.45265737,13.43851513",,,A91,Neukölln,Britz,west
1965784,Tempelhofer Weg Ecke Britzerdamm,autobus,"52.44894820,13.43619608",,,A91,Neukölln,Britz,west
1965785,Ernst-Reuter-Platz,autobus,"52.51259772,13.32187582",,,A90,,,
1965785,Mohriner Allee Ecke Buckower Damm,autobus,"52.44415812,13.43354138",,,A91,Charlottenburg-Wilmersdorf,Charlottenburg,west
1965786,Gutschmidtstrasse Ecke Buckower Damm,autobus,"52.44037172,13.43478719",,,A91,Neukölln,Britz,west
1965787,Schlosserweg Ecke Buckower Damm,autobus,"52.43931812,13.43486911",,,A91,Neukölln,Britz,west
1965788,Zimmererweg Ecke Buckower Damm,autobus,"52.43530943,13.43512496",,,A91,Neukölln,Britz,west
1965789,Dachdeckerweg Ecke Buckower Damm,autobus,"52.43209036,13.43515188",,,A91,Mitte,Moabit,west
1965789,Turmstrasse Ecke Rathenowerstrasse,autobus,"52.52676755,13.35529472",,,A90,,,
1965790,Parkfriedhof Neukölln,autobus,"52.42837472,13.43500150",,,A91,Neukölln,Britz,west
1965791,Alt-Buckow Ecke Buckower Damm,autobus,"52.42365120,13.43663595",,,A91,Neukölln,Buckow,west
1965792,Grunewaldstrasse Ecke Ruhlebenerstrasse,autobus,"52.53017273,13.20468457",,,A92,Spandau,Spandau,west
1965793,Klosterstrasse Ecke Ruhlebenerstrasse,autobus,"52.53291424,13.19844858",,,A92,Spandau,Spandau,west
1965794,Schmidt-Knobelsdorf-Strasse Ecke Wilhelmstrasse,autobus,"52.52167175,13.18891981",,,A92,Spandau,Wilhelmstadt,west
1965795,Wilhelmstrasse/Heerstrasse,autobus,"52.51662276,13.17904272",,,A92,Spandau,Wilhelmstadt,west
1965796,Reimerweg Ecke Heerstrasse,autobus,"52.52184204,13.15430702",,,A92,Spandau,Staaken,west
1965797,"Rudow, Waßmannsdorfer Chaussee Ecke Groß Ziethener Chaussee",autobus,"52.41526753,13.49553224",,,A93,Neukölln,Rudow,west
1965798,Eichenauer Weg Ecke Waßmannsdorfer Chaussee,autobus,"52.41260921,13.49510452",,,A93,Neukölln,Rudow,west
1965799,Lockenhuhnweg Ecke Waßmannsdorfer Chaussee,autobus,"52.40834716,13.49244876",,,A93,Neukölln,Rudow,west
1965800,Geflügelsteig Ecke Waßmannsdorfer Chaussee,autobus,"52.40508366,13.49066251",,,A93,Neukölln,Rudow,west
1965801,Klein-Ziethener Weg Ecke Geflügelsteig,autobus,"52.40710730,13.48484559",,,A93,Neukölln,Rudow,west
1965802,Lakenfelderweg Ecke Geflügelsteig,autobus,"52.40828415,13.48211785",,,A93,Neukölln,Rudow,west
1965803,Groß Ziethener Chaussee Ecke Geflügelsteig,autobus,"52.41047365,13.47942642",,,A93,Neukölln,Rudow,west
1965804,Pirnaer Strasse Ecke Groß Ziethener Chaussee,autobus,"52.41190291,13.48372425",,,A93,Neukölln,Rudow,west
1965805,Kolonie Ewige Heimat,autobus,"52.41342548,13.48968439",,,A93,Neukölln,Rudow,west
1965806,Waßmannsdorfer Chaussee Ecke Groß Ziethener Chaussee,autobus,"52.41525444,13.49553224",,,A93,Neukölln,Rudow,west
1965807,Baerwaldstrasse Ecke Urbanstrasse,autobus,"52.49389984,13.40346009",,,A95,Friedrichshain-Kreuzberg,Kreuzberg,west
1965808,"Hermannplatz, Sonnenallee",autobus,"52.48787819,13.42530729",,,A95,Neukölln,Neukölln,east
1965809,Pannierstrasse Ecke Sonnenallee,autobus,"52.48611601,13.43027163",,,A95,Neukölln,Neukölln,east
1965810,Saalestrasse Ecke Sonnenallee,autobus,"52.47386410,13.45587793",,,A95,Neukölln,Neukölln,east
1965811,Schwarzer Weg Ecke Sonnenallee,autobus,"52.46241684,13.47666100",,,A95,Neukölln,Neukölln,east
1965812,Brunnenstrasse Ecke Lortzingstrasse,autobus,"52.54254624,13.39272812",,,A99,Mitte,Gesundbrunnen,west
1965813,"Brunnenplatz, Pankstrasse",autobus,"52.54974599,13.37737049",,,A99,Mitte,Gesundbrunnen,west
1965814,Rathenowerstrasse Ecke Quitzowstrasse,autobus,"52.53509388,13.34967453",,,A99,Mitte,Moabit,west
1965815,Wernerwerk,autobus,"52.53562700,13.27537088",,,A99,Spandau,Siemensstadt,west
1965816,Quellweg Ecke Nonnendamm Allee,autobus,"52.53666858,13.26843643",,,A99,Spandau,Siemensstadt,west
1965817,Paulsternstrasse Ecke Nonnendamm Allee,autobus,"52.53814656,13.24775542",,,A99,Spandau,Haselhorst,west
1965818,Gartenfelderstrasse Ecke Nonnendammallee,autobus,"52.53921965,13.23193032",,,A99,Spandau,Haselhorst,west
1965819,Carl-Schurz-Strasse Ecke Am Juliusturm,autobus,"52.53954502,13.20555083",,,A99,Spandau,Spandau,west
1965820,Breitestrasse Ecke Charlottenstrasse,autobus,"52.53613955,13.20442990",,,A99,Spandau,Spandau,west
1965821,Germesheimer Platz,autobus,"52.54456786,13.18701195",,,A99,Spandau,Falkenhagener Feld,west
1965822,Fürstenbrunner Weg Ecke Spandauer Damm,autobus,"52.51842262,13.28011647",,,AS1,Charlottenburg-Wilmersdorf,Westend,west
1965823,Kirschenallee Ecke Spandauer Damm,autobus,"52.52037881,13.26719193",,,AS1,Charlottenburg-Wilmersdorf,Westend,west
1965824,Schloß Ruhwald,autobus,"52.52160458,13.26039687",,,AS1,Charlottenburg-Wilmersdorf,Westend,west
1965825,Teltower Strasse Ecke Ruhlebenerstrasse,autobus,"52.52691598,13.21592513",,,AS1,Spandau,Wilhelmstadt,west
1965826,Lynarstrasse Ecke Neuendorferstrasse,autobus,"52.54898690,13.21020961",,,AS1,Spandau,Hakenfelde,west
1965827,Klinkeplatz,autobus,"52.55555146,13.19854978",,,AS1,Spandau,Hakenfelde,west
1965828,Hohenzollernring,autobus,"52.55534807,13.19865762",,,AS1,Spandau,Hakenfelde,west
1965829,Kurfürstendamm Ecke Joachimthalerstrasse,autobus,"52.50381681,13.33133158",,,AS2,Charlottenburg-Wilmersdorf,Charlottenburg,west
1965830,Rankeplatz,autobus,"52.50042978,13.33086733",,,AS2,Charlottenburg-Wilmersdorf,Charlottenburg,west
1965831,Hohenzollerndamm Ecke Bundesallee,autobus,"52.49531823,13.33073029",,,AS2,Charlottenburg-Wilmersdorf,Wilmersdorf,west
1965832,Trautenaustrasse Ecke Bundesallee,autobus,"52.49316877,13.33084761",,,AS2,Charlottenburg-Wilmersdorf,Wilmersdorf,west
1965833,Canovastrasse Ecke Thorwaldsenstrasse,autobus,"52.46303228,13.34275862",,,AS2,Steglitz-Zehlendorf,Steglitz,west
1965834,Mariendorfer Damm Ecke Kaiserstrasse,autobus,"52.44555364,13.38578300",,,AS2,Tempelhof-Schöneberg,Mariendorf,west
1965835,Alt-Mariendorf Ecke Mariendorfer Damm,autobus,"52.44019477,13.38731753",,"nan, nan",AS2,Tempelhof-Schöneberg,Mariendorf,west
1965836,Tauernallee Ecke Mariendorfer Damm,autobus,"52.42328224,13.39615754",,,AS2,Tempelhof-Schöneberg,Mariendorf,west
1965837,Buckower Chaussee Ecke Lichtenrader Damm,autobus,"52.41457113,13.40120395",,,AS2,Tempelhof-Schöneberg,Lichtenrade,west
1965838,Goethestrasse Ecke Lichtenrader Damm,autobus,"52.40441063,13.40618736",,,AS2,Tempelhof-Schöneberg,Lichtenrade,west
1965839,Goltzstrasse Ecke Lichtenrader Damm,autobus,"52.38741231,13.40969616",,,AS2,Tempelhof-Schöneberg,Lichtenrade,west
1965840,Steinstrasse Ecke Bahnhofstrasse,autobus,"52.38670377,13.39856724",,,AS2,Tempelhof-Schöneberg,Lichtenrade,west
1965841,Seesenerstrasse Ecke Hohenzollerndamm,autobus,"52.48846116,13.30215002",,,AS3,Charlottenburg-Wilmersdorf,Wilmersdorf,west
1965842,Pücklerstrasse Ecke Clayallee,autobus,"52.46857085,13.27839710",,,AS3,Steglitz-Zehlendorf,Dahlem,west
1965843,Königin-Luise-Strasse Ecke Clayallee,autobus,"52.46048317,13.27487914",,,AS3,Steglitz-Zehlendorf,Dahlem,west
1965844,Winifriedstrasse Ecke Clayallee,autobus,"52.43922923,13.26287138",,,AS3,Steglitz-Zehlendorf,Zehlendorf,west
1965845,Clayallee Ecke Berlinerstrasse,autobus,"52.43506128,13.26045832",,,AS3,Steglitz-Zehlendorf,Zehlendorf,west
1965846,Savignyplatz,autobus,"52.50585291,13.32187247",,,AS4,Charlottenburg-Wilmersdorf,Charlottenburg,west
1965847,Leibnizstrasse Ecke Kantstrasse,autobus,"52.50628812,13.31395372",,,AS4,Charlottenburg-Wilmersdorf,Charlottenburg,west
1965848,Wilmersdorferstrasse Ecke Kantstrasse,autobus,"52.50669450,13.30667544",,,AS4,Charlottenburg-Wilmersdorf,Charlottenburg,west
1965849,Wundtstrasse Ecke Neue Kantstrasse,autobus,"52.50644122,13.28374229",,,AS4,Charlottenburg-Wilmersdorf,Charlottenburg,west
1965850,Messedamm Ecke Neue Kantstrasse,autobus,"52.50646481,13.28039967",,,AS4,Charlottenburg-Wilmersdorf,Westend,west
1965851,Spanische Allee Ecke Kronprinzessinnenweg,autobus,"52.43381203,13.18936731",,,AS4,Steglitz-Zehlendorf,Nikolassee,west
1965852,Am Großen Wannsee Ecke Königstrasse,autobus,"52.42050256,13.16717980",,,AS4,Steglitz-Zehlendorf,Wannsee,west
1965853,Kladow,ferry,"52.45151499,13.14796194",,,Kladow <> Wannsee,Spandau,Kladow,west
1965854,Wannsee,ferry,"52.42192802,13.17581596",,,Kladow <> Wannsee,Steglitz-Zehlendorf,Wannsee,west
1965855,Gesundbrunnen,s-bahn,"52.54861111,13.38944444",,Q111239092,KBS 100,Mitte,Gesundbrunnen,west
1965856,Wedding,s-bahn,"52.54250000,13.36610000",,Q638604,KBS 100,Mitte,Wedding,west
1965857,Putlitzstr.,s-bahn,"52.53600000,13.34400000",,Q465972,KBS 100,Mitte,Moabit,west
1965858,Beusselstr.,s-bahn,"52.53444444,13.32916667",,Q323219,KBS 100,Mitte,Moabit,west
1965859,Jungfernheide,s-bahn,"52.53035000,13.29943333",,Q110977325,KBS 100,Charlottenburg-Wilmersdorf,Charlottenburg-Nord,west
1965860,Westend,s-bahn,"52.51810000,13.28440000",,Q323214,KBS 100,Charlottenburg-Wilmersdorf,Charlottenburg,west
1965861,Witzleben,s-bahn,"52.50780000,13.28360000",,Q321266,KBS 100,Charlottenburg-Wilmersdorf,Charlottenburg,west
1965862,Westkreuz,s-bahn,"52.50110000,13.28390000",,Q678125,KBS 100,Charlottenburg-Wilmersdorf,Charlottenburg,west
1965863,Halensee,s-bahn,"52.49610000,13.29060000",,Q800476,KBS 100,Charlottenburg-Wilmersdorf,Halensee,west
1965864,Hohenzollerndamm,s-bahn,"52.48850000,13.30040000",,Q800503,KBS 100,Charlottenburg-Wilmersdorf,Halensee,west
1965865,Schmargendorf,s-bahn,"52.47967222,13.31244167",,Q302810,KBS 100,Charlottenburg-Wilmersdorf,Wilmersdorf,west
1965866,Wilmersdorf,s-bahn,"52.47765833,13.32852500",,Q464094,KBS 100,Charlottenburg-Wilmersdorf,Wilmersdorf,west
1965867,Innsbrucker Platz,s-bahn,"52.47860000,13.34390000",,Q111263876,KBS 100,Tempelhof-Schöneberg,Schöneberg,east
1965868,Schöneberg,s-bahn,"52.47940000,13.35170000",,Q543855,KBS 100,Tempelhof-Schöneberg,Schöneberg,east
1965869,Papestr.,s-bahn,"52.47560000,13.36440000",,Q111323139,KBS 100,Tempelhof-Schöneberg,Schöneberg,east
1965870,Tempelhof,s-bahn,"52.47080000,13.38540000",,Q111264368,KBS 100,Tempelhof-Schöneberg,Tempelhof,west
1965871,Hermannstr.,s-bahn,"52.46750000,13.43111111",,Q111263802,KBS 100,Neukölln,Neukölln,east
1965872,Neukölln,s-bahn,"52.46916667,13.44166667",,Q111325412,KBS 100,Neukölln,Neukölln,east
1965873,Sonnenallee,s-bahn,"52.47300000,13.45580000",,Q481364,KBS 100,Neukölln,Neukölln,east
1965874,Siemensstadt-Fürstenbrunn,s-bahn,"52.52800000,13.26950000",,Q18747940,KBS 100a,Charlottenburg-Wilmersdorf,Westend,west
1965875,Spandau,s-bahn,"52.53200000,13.20890000",,Q800491,KBS 100a,Spandau,Spandau,west
1965876,Spandau West,s-bahn,"52.53470000,13.19580000",,Q111325678,KBS 100a,Spandau,Spandau,west
1965877,Staaken,s-bahn,"52.53780000,13.14140000",,Q477545,KBS 100a,Spandau,Staaken,west
1965878,Wernerwerk,s-bahn,"52.53486300,13.27599000",,Q96077001,KBS 100b,Spandau,Siemensstadt,west
1965879,Siemensstadt,s-bahn,"52.53923000,13.26365000",,Q96080453,KBS 100b,Spandau,Siemensstadt,west
1965880,Gartenfeld,s-bahn,"52.54695000,13.24882000",,Q96080469,KBS 100b,Spandau,Siemensstadt,west
1965881,Heiligensee,s-bahn,"52.62470000,13.22920000",,Q800475,KBS 100c,Reinickendorf,Heiligensee,west
1965882,Schulzendorf (b Tegel),s-bahn,"52.61280000,13.24620000",,Q800487,KBS 100c,Reinickendorf,Heiligensee,west
1965883,Tegel,s-bahn,"52.58860000,13.28940000",,Q800493,KBS 100c,Reinickendorf,Tegel,west
1965884,Eichbornstr.,s-bahn,"52.57760000,13.31690000",,Q800500,KBS 100c,Reinickendorf,Reinickendorf,west
1965885,Wittenau (Kremmener Bahn),s-bahn,"52.59701300,13.33432900",,Q111264319,KBS 100c,Reinickendorf,Wittenau,west
1965886,Reinickendorf,s-bahn,"52.57790000,13.35060000",,Q800496,KBS 100c,Reinickendorf,Reinickendorf,west
1965887,Schönholz,s-bahn,"52.57140000,13.38140000",,Q800490,KBS 100c,Reinickendorf,Reinickendorf,west
1965888,Wollankstr.,s-bahn,"52.56515250,13.39236270",,Q800515,KBS 100c,Pankow,Pankow,east
1965889,Humboldthain,s-bahn,"52.54510000,13.37960000",,Q481276,KBS 100c,Mitte,Gesundbrunnen,west
1965890,Friedrichstr.,s-bahn,"52.52027778,13.38694444",,Q111219456,KBS 100c,Mitte,Mitte,east
1965891,Anhalter Bahnhof,s-bahn,"52.50305556,13.38194444",,Q111324573,KBS 100c,Friedrichshain-Kreuzberg,Kreuzberg,west
1965892,Yorckstr.,s-bahn,"52.49177778,13.37214167",,Q21776729,KBS 100c,Tempelhof-Schöneberg,Schöneberg,east
1965893,Priesterweg,s-bahn,"52.46010000,13.35630000",,Q800508,KBS 100c,Tempelhof-Schöneberg,Schöneberg,east
1965894,Mariendorf,s-bahn,"52.44780000,13.36090000",,Q800497,KBS 100c,Tempelhof-Schöneberg,Tempelhof,west
1965895,Marienfelde,s-bahn,"52.42420000,13.37470000",,Q800485,KBS 100c,Tempelhof-Schöneberg,Marienfelde,west
1965896,Buckower Ch.,s-bahn,"52.41030000,13.38290000",,Q800499,KBS 100c,Tempelhof-Schöneberg,Marienfelde,west
1965897,Lichtenrade,s-bahn,"52.38760000,13.39630000",,Q6543354,KBS 100c,Tempelhof-Schöneberg,Lichtenrade,west
1965898,Südende,s-bahn,"52.44810000,13.35360000",,Q800511,KBS 100d,Steglitz-Zehlendorf,Steglitz,west
1965899,Lankwitz,s-bahn,"52.43860000,13.34170000",,Q800481,KBS 100d,Steglitz-Zehlendorf,Lankwitz,west
1965900,Lichterfelde Ost,s-bahn,"52.43000000,13.32890000",,Q111311299,KBS 100d,Steglitz-Zehlendorf,Lichterfelde,west
1965901,Lichterfelde Süd,s-bahn,"52.41000000,13.30860000",,Q800482,KBS 100d,Steglitz-Zehlendorf,Lichterfelde,west
1965902,Frohnau,s-bahn,"52.63250000,13.29020000",,Q800472,KBS 100e,Reinickendorf,Frohnau,west
1965903,Hermsdorf,s-bahn,"52.61780000,13.30690000",,Q263189,KBS 100e,Reinickendorf,Hermsdorf,west
1965904,Waidmannslust,s-bahn,"52.60640000,13.32100000",,Q800492,KBS 100e,Reinickendorf,Waidmannslust,west
1965905,Wittenau (Nordbahn),s-bahn,"52.59701300,13.33432900",,Q111264319,KBS 100e,Reinickendorf,Wittenau,west
1965906,Wilhelmsruh,s-bahn,"52.58140000,13.36310000",,Q800495,KBS 100e,Reinickendorf,Reinickendorf,west
1965907,Großgörschenstr.,s-bahn,"52.49227450,13.36785880",,Q21776726,KBS 100e,Tempelhof-Schöneberg,Schöneberg,east
1965908,Friedenau,s-bahn,"52.47000000,13.34100000",,Q800471,KBS 100e,Tempelhof-Schöneberg,Schöneberg,east
1965909,Feuerbachstr.,s-bahn,"52.46361111,13.33277778",,Q800501,KBS 100e,Steglitz-Zehlendorf,Steglitz,west
1965910,Steglitz,s-bahn,"52.45620000,13.32160000",,Q111264179,KBS 100e,Steglitz-Zehlendorf,Steglitz,west
1965911,Botanischer Garten,s-bahn,"52.44806000,13.30722000",,Q800498,KBS 100e,Steglitz-Zehlendorf,Lichterfelde,west
1965912,Lichterfelde West,s-bahn,"52.44330000,13.29470000",,Q111327103,KBS 100e,Steglitz-Zehlendorf,Lichterfelde,west
1965913,Sundgauer Str.,s-bahn,"52.43629100,13.27377200",,Q800513,KBS 100e,Steglitz-Zehlendorf,Zehlendorf,west
1965914,Zehlendorf,s-bahn,"52.43090000,13.25840000",,Q737962,KBS 100e,Steglitz-Zehlendorf,Zehlendorf,west
1965915,Lindenthaler Allee,s-bahn,"52.43750000,13.23250000",,Q315891,KBS 100e,Steglitz-Zehlendorf,Zehlendorf,west
1965916,Schlachtensee,s-bahn,"52.44010000,13.21530000",,Q800509,KBS 100e,Steglitz-Zehlendorf,Zehlendorf,west
1965917,Nikolassee,s-bahn,"52.43170000,13.19330000",,Q637052,KBS 100e,Steglitz-Zehlendorf,Nikolassee,west
1965918,Wannsee,s-bahn,"52.42140000,13.17920000",,Q111325896,KBS 100e,Steglitz-Zehlendorf,Wannsee,west
1965919,Düppel-Kleinmachnow,s-bahn,"52.42138889,13.22666667",,Q44763529,KBS 100f,Steglitz-Zehlendorf,Nikolassee,west
1965920,Lehrter Stadtbahnhof,s-bahn,"52.52530000,13.36940000",,Q821299,KBS 100g,Mitte,Moabit,west
1965921,Bellevue,s-bahn,"52.52000000,13.34805556",,Q374018,KBS 100g,Mitte,Hansaviertel,west
1965922,Tiergarten,s-bahn,"52.51440000,13.33650000",,Q572112,KBS 100g,Mitte,Hansaviertel,west
1965923,Zoologischer Garten,s-bahn,"52.50722222,13.33250000",,Q111326238,KBS 100g,Charlottenburg-Wilmersdorf,Charlottenburg,west
1965924,Savignyplatz,s-bahn,"52.50517460,13.31906590",,Q554382,KBS 100g,Charlottenburg-Wilmersdorf,Charlottenburg,west
1965925,Charlottenburg,s-bahn,"52.50472222,13.30333333",,Q111326217,KBS 100g,Charlottenburg-Wilmersdorf,Charlottenburg,west
1965926,Eichkamp,s-bahn,"52.49870000,13.27020000",,Q800504,KBS 100g,Charlottenburg-Wilmersdorf,Westend,west
1965927,Heerstr.,s-bahn,"52.50860000,13.25860000",,Q800502,KBS 100g,Charlottenburg-Wilmersdorf,Westend,west
1965928,Olympiastadion,s-bahn,"52.51100000,13.24160000",,Q800506,KBS 100g,Charlottenburg-Wilmersdorf,Westend,west
1965929,Pichelsberg,s-bahn,"52.51030000,13.22710000",,Q800488,KBS 100g,Charlottenburg-Wilmersdorf,Westend,west
1965930,Grunewald,s-bahn,"52.48920000,13.26140000",,Q457266,KBS 100h,Charlottenburg-Wilmersdorf,Westend,west
1965931,Köllnische Heide,s-bahn,"52.46940000,13.46750000",,Q800505,KBS 100k,Neukölln,Neukölln,east
1965932,Schlesisches Tor,u-bahn,"52.50083333,13.44166667",,Q602282,A I,Friedrichshain-Kreuzberg,Kreuzberg,west
1965933,Görlitzer Bahnhof (Oranienstr.),u-bahn,"52.49920000,13.42800000",,Q597759,A I,Friedrichshain-Kreuzberg,Kreuzberg,west
1965934,Kottbusser Tor,u-bahn,"52.49916667,13.41805556",,Q819768,A I,Friedrichshain-Kreuzberg,Kreuzberg,west
1965935,Prinzenstr.,u-bahn,"52.49833333,13.40611111",,Q689797,A I,Friedrichshain-Kreuzberg,Kreuzberg,west
1965936,Hallesches Tor,u-bahn,"52.49777778,13.39111111",,Q658302,A I,Friedrichshain-Kreuzberg,Kreuzberg,west
1965937,Gleisdreieck,u-bahn,"52.49952000,13.37409000",,Q678372,A I,Friedrichshain-Kreuzberg,Kreuzberg,west
1965938,Kurfürstenstr.,u-bahn,"52.50000000,13.36194444",,Q690203,A I,Mitte,Tiergarten,west
1965939,Nollendorfplatz,u-bahn,"52.49916667,13.35388889",,Q571039,A I,Tempelhof-Schöneberg,Schöneberg,east
1965940,Wittenbergplatz,u-bahn,"52.50194444,13.34305556",,Q692727,A I,Tempelhof-Schöneberg,Schöneberg,east
1965941,Zoologischer Garten,u-bahn,"52.50586690,13.33302360",,Q4024764,A I,Charlottenburg-Wilmersdorf,Charlottenburg,west
1965942,Ernst-Reuter-Platz,u-bahn,"52.51194444,13.32222222",,Q658361,A I,Charlottenburg-Wilmersdorf,Charlottenburg,west
1965943,Deutsche Oper (Bismarckstr.),u-bahn,"52.51194444,13.31055556",,Q869501,A I,Charlottenburg-Wilmersdorf,Charlottenburg,west
1965944,Sophie-Charlotte-Platz,u-bahn,"52.51083333,13.29666667",,Q657879,A I,Charlottenburg-Wilmersdorf,Charlottenburg,west
1965945,Kaiserdamm (Messedamm),u-bahn,"52.51000000,13.28220000",,Q656409,A I,Charlottenburg-Wilmersdorf,Westend,west
1965946,Theodor-Heuss-Platz,u-bahn,"52.50972222,13.27305556",,Q657857,A I,Charlottenburg-Wilmersdorf,Westend,west
1965947,Ruhleben,u-bahn,"52.52555556,13.24138889",,Q656401,A I,Charlottenburg-Wilmersdorf,Westend,west
1965948,Möckernbrücke,u-bahn,"52.49916667,13.38277778",,Q704716,A II,Friedrichshain-Kreuzberg,Kreuzberg,west
1965949,Augsburger Str.,u-bahn,"52.50055600,13.33638900",,Q667035,A II,Charlottenburg-Wilmersdorf,Charlottenburg,west
1965950,Spichernstrasse,u-bahn,"52.49638889,13.33055556",,Q667046,A II,Charlottenburg-Wilmersdorf,Wilmersdorf,west
1965951,Hohenzollernplatz,u-bahn,"52.49388889,13.32500000",,Q571570,A II,Charlottenburg-Wilmersdorf,Wilmersdorf,west
1965952,Fehrbelliner Platz,u-bahn,"52.49027778,13.31444444",,Q663245,A II,Charlottenburg-Wilmersdorf,Wilmersdorf,west
1965953,Heidelberger Platz,u-bahn,"52.47980833,13.31323611",,Q21777872,A II,Charlottenburg-Wilmersdorf,Wilmersdorf,west
1965954,Rüdesheimer Platz,u-bahn,"52.47333333,13.31444444",,Q167147,A II,Charlottenburg-Wilmersdorf,Wilmersdorf,west
1965955,Breitenbachplatz,u-bahn,"52.46638889,13.30805556",,Q571339,A II,Steglitz-Zehlendorf,Dahlem,west
1965956,Podbielskiallee,u-bahn,"52.46444444,13.29638889",,Q571324,A II,Steglitz-Zehlendorf,Dahlem,west
1965957,Dahlem-Dorf,u-bahn,"52.45694444,13.28944444",,Q668585,A II,Steglitz-Zehlendorf,Dahlem,west
1965958,Thielplatz,u-bahn,"52.45111111,13.28222222",,Q571331,A II,Steglitz-Zehlendorf,Dahlem,west
1965959,Oskar-Helene-Heim,u-bahn,"52.45027778,13.26972222",,Q681336,A II,Steglitz-Zehlendorf,Dahlem,west
1965960,Onkel Toms Hütte,u-bahn,"52.45027778,13.25333333",,Q389214,A II,Steglitz-Zehlendorf,Zehlendorf,west
1965961,Krumme Lanke,u-bahn,"52.44333333,13.24138889",,Q663945,A II,Steglitz-Zehlendorf,Zehlendorf,west
1965962,Richard-Wagner-Platz,u-bahn,"52.51750000,13.30638889",,Q662201,A III,Charlottenburg-Wilmersdorf,Charlottenburg,west
1965963,Bayerischer Platz,u-bahn,"52.48833333,13.34027778",,Q668574,B I,Tempelhof-Schöneberg,Schöneberg,east
1965964,Innsbrucker Platz,u-bahn,"52.47860000,13.34390000",,Q10275871,B I,Tempelhof-Schöneberg,Schöneberg,east
1965965,Kurfürstendamm,u-bahn,"52.50416667,13.33277778",,Q663933,B III,Charlottenburg-Wilmersdorf,Charlottenburg,west
1965966,Uhlandstrasse,u-bahn,"52.49368292,13.32361138",,,B III,Charlottenburg-Wilmersdorf,Wilmersdorf,west
1965967,Tegel,u-bahn,"52.58944000,13.28389000",,Q656090,C I,Reinickendorf,Tegel,west
1965968,Borsigwerke,u-bahn,"52.58190000,13.29070000",,Q525185,C I,Reinickendorf,Tegel,west
1965969,Holzhauser Str.,u-bahn,"52.57583333,13.29611111",,Q557566,C I,Reinickendorf,Tegel,west
1965970,Seidelstr. (Flughafen Tegel),u-bahn,"52.57111100,13.30277800",,Q557582,C I,Reinickendorf,Reinickendorf,west
1965971,Scharnweberstr. (Eichborndamm),u-bahn,"52.56694444,13.31277778",,Q557586,C I,Reinickendorf,Reinickendorf,west
1965972,Kurt-Schumacher-Platz,u-bahn,"52.56355556,13.32657222",,Q555916,C I,Reinickendorf,Reinickendorf,west
1965973,Afrikanische Str.,u-bahn,"52.56002778,13.33463333",,Q559239,C I,Mitte,Wedding,west
1965974,Rehberge,u-bahn,"52.55670000,13.34120000",,Q253850,C I,Mitte,Wedding,west
1965975,Seestr.,u-bahn,"52.55056000,13.35194000",,Q554391,C I,Mitte,Wedding,west
1965976,Leopoldplatz,u-bahn,"52.54650000,13.35910000",,Q1960809,C I,Mitte,Wedding,west
1965977,Bahnhof Wedding,u-bahn,"52.54250000,13.36611100",,Q4018733,C I,Mitte,Wedding,west
1965978,Reinickendorfer Str.,u-bahn,"52.53991111,13.37037778",,Q559249,C I,Mitte,Wedding,west
1965979,Bahnhof Friedrichstr. (Stadtbahn),u-bahn,"52.52011111,13.38830556",,Q3753274,C I,Mitte,Mitte,east
1965980,Kochstr.,u-bahn,"52.50589722,13.39061111",,Q201849,C I,Friedrichshain-Kreuzberg,Kreuzberg,west
1965981,Mehringdamm,u-bahn,"52.49388889,13.38833333",,Q657905,C I,Friedrichshain-Kreuzberg,Kreuzberg,west
1965982,Gneisenaustr.,u-bahn,"52.49138889,13.39555556",,Q668618,C I,Friedrichshain-Kreuzberg,Kreuzberg,west
1965983,Südstern,u-bahn,"52.48944444,13.40777778",,Q656081,C I,Friedrichshain-Kreuzberg,Kreuzberg,west
1965984,Hermannplatz,u-bahn,"52.48629000,13.42455000",,Q658929,C I,Neukölln,Neukölln,east
1965985,Rathaus Neukölln,u-bahn,"52.48166667,13.43416667",,Q628770,C I,Neukölln,Neukölln,east
1965986,Karl-Marx-Str.,u-bahn,"52.47611111,13.43916667",,Q519494,C I,Neukölln,Neukölln,east
1965987,Neukölln (Südring),u-bahn,"52.46944400,13.44222200",,Q21272767,C I,Neukölln,Neukölln,east
1965988,Grenzallee,u-bahn,"52.46333333,13.44388889",,Q571836,C I,Neukölln,Britz,west
1965989,Blaschkoallee,u-bahn,"52.45194444,13.44944444",,Q666911,C I,Neukölln,Britz,west
1965990,Parchimer Allee,u-bahn,"52.44472222,13.44944444",,Q571855,C I,Neukölln,Britz,west
1965991,Britz-Süd,u-bahn,"52.43777778,13.44805556",,Q571845,C I,Neukölln,Britz,west
1965992,Flughafen,u-bahn,"52.48555600,13.38583300",,Q557582,C II,Friedrichshain-Kreuzberg,Kreuzberg,west
1965993,Paradestr.,u-bahn,"52.47805556,13.38611111",,Q557543,C II,Tempelhof-Schöneberg,Tempelhof,west
1965994,Tempelhof (Südring),u-bahn,"52.47075000,13.38536111",,Q3983109,C II,Tempelhof-Schöneberg,Tempelhof,west
1965995,Gesundbrunnen,u-bahn,"52.54861100,13.38944400",,Q3761416,D,Mitte,Gesundbrunnen,west
1965996,Voltastr.,u-bahn,"52.54209300,13.39302200",,Q663308,D,Mitte,Gesundbrunnen,west
1965997,Moritzplatz,u-bahn,"52.50361111,13.41083333",,Q374225,D,Friedrichshain-Kreuzberg,Kreuzberg,west
1965998,Kottbusser Damm (Schönleinstr.),u-bahn,"52.49305556,13.42194444",,Q666868,D,Friedrichshain-Kreuzberg,Kreuzberg,west
1965999,Boddinstr.,u-bahn,"52.48000000,13.42527778",,Q819495,D,Neukölln,Neukölln,east
19651000,Leinestr.,u-bahn,"52.47277778,13.42833333",,Q668563,D,Neukölln,Neukölln,east
19651001,Amrumer Strasse,u-bahn,"52.54250000,13.35027778",,Q557577,G,Mitte,Wedding,west
19651002,Pulitzstrasse,u-bahn,"52.53679500,13.34272400",,Q4019188,G,Mitte,Moabit,west
19651003,Birkenstrasse,u-bahn,"52.53222222,13.34138889",,Q555998,G,Mitte,Moabit,west
19651004,Turmstrasse,u-bahn,"52.52585000,13.34135278",,Q571400,G,Mitte,Moabit,west
19651005,Hansaplatz,u-bahn,"52.51777778,13.34222222",,Q287552,G,Mitte,Hansaviertel,west
19651965870,Richard-Wagner-Platz,strassenbahn,"52.51739226,13.30650847",,,55,Charlottenburg-Wilmersdorf,Charlottenburg,west
19651965872,Pionierstrasse Ecke Zeppelinstrasse,autobus,"52.55151570,13.18550432",,,A63,Spandau,Falkenhagener Feld,west
19651965873,Rathaus Wannsee,autobus,"52.41842454,13.14881635",,,AS4,Steglitz-Zehlendorf,Wannsee,west
19650,"Marienfelde, Daimlerstrasse",tram,"52.42393712,13.38022295",,,15,Tempelhof-Schöneberg,Marienfelde,west
19651,Großbeerenstrasse Ecke Daimlerstrasse,tram,"52.42636276,13.37438168",,,15,Tempelhof-Schöneberg,Marienfelde,west
19652,Körtingstrasse Ecke Großbeerenstrasse,tram,"52.43481353,13.37831564",,,15,Tempelhof-Schöneberg,Mariendorf,west
19653,Mariendorferdamm Ecke Alt-Mariendorf,tram,"52.44016815,13.38730997",,,15,Tempelhof-Schöneberg,Mariendorf,west
19654,Imbrosweg Ecke Rixdorferstrasse,tram,"52.44352627,13.39862544",,,15,Tempelhof-Schöneberg,Mariendorf,west
19655,Mariendamm Friedhof,tram,"52.44953069,13.40475593",,,15,Tempelhof-Schöneberg,Mariendorf,west
19656,Industriestrasse Ecke Gottlieb-Dunkel-Strasse,tram,"52.45533607,13.40989571",,,15,Tempelhof-Schöneberg,Tempelhof,west
19657,Germaniastrasse Ecke Gottlieb-Dunkel-Strasse,tram,"52.46053987,13.41805889",,,15,Tempelhof-Schöneberg,Tempelhof,west
19658,"Frauenklinik, Mariendorferweg",tram,"52.46394991,13.42750955",,,15,Neukölln,Neukölln,east
19659,Hermannstrasse/Britzer Damm,tram,"52.46276073,13.43439092",,,15,Neukölln,Britz,west
196510,U-Bhf. Neukölln,tram,"52.46965568,13.44161494",,,15,Neukölln,Neukölln,east
196511,Richardstrasse Ecke Braunschweigerstrasse,tram,"52.47098038,13.44634551",,,15,Neukölln,Neukölln,east
196512,Saalestrasse Ecke Sonnenallee,tram,"52.47384843,13.45589857",,,15,Neukölln,Neukölln,east
196513,Dammweg Ecke Sonnenallee,tram,"52.47028918,13.46461967",,,15,Neukölln,Neukölln,east
196514,Schulenburgpark,tram,"52.46666061,13.47029259",,,15,Neukölln,Neukölln,east
196515,Gradestrasse Ecke Tempelhofer Weg,tram,"52.45253932,13.43305683",,,47,Neukölln,Britz,west
196516,U-Bhf. Blaschkoallee,tram,"52.45247429,13.44902591",,,47,Neukölln,Britz,west
196517,Buschkrugallee Ecke Blaschkoallee,tram,"52.45253092,13.45217109",,,47,Neukölln,Britz,west
196518,Onkel-Herse-Strasse Ecke Buschkrugallee,tram,"52.44824572,13.45392578",,,47,Neukölln,Britz,west
196519,Parchimerallee Ecke Buschkrugallee,tram,"52.44543069,13.45497615",,,47,Neukölln,Britz,west
196520,Grünerweg Ecke Buschkrugallee,tram,"52.44256249,13.45634565",,,47,Neukölln,Britz,west
196521,Krankenhaus Neukölln,tram,"52.43977054,13.45935906",,,47,Neukölln,Buckow,west
196522,Johannisthaler Chaussee Ecke Rudowerstrasse,tram,"52.43431775,13.46904333",,,47,Neukölln,Buckow,west
196523,Wildmeisterdamm Ecke Neuköllnerstrasse,tram,"52.42577675,13.48323925",,,47,Neukölln,Rudow,west
196524,Stubenrauchstrasse Ecke Neuköllnerstrasse,tram,"52.42416862,13.48544348",,,47,Neukölln,Rudow,west
196525,Köpenickerstrasse Ecke Neuköllnerstrasse,tram,"52.41693184,13.49408867",,,47,Neukölln,Rudow,west
196526,Groß-Ziethener-Chaussee Ecke Waltersdorferchaussee,tram,"52.41611361,13.49741897",,,47,Neukölln,Rudow,west
196527,"Rudow, Stadtgrenze",tram,"52.40149832,13.51359770",,,47P,Neukölln,Rudow,west
196528,Richard-Wagner-Platz,tram,"52.51757062,13.30624812",,,53,Charlottenburg-Wilmersdorf,Charlottenburg,west
196529,Luisenplatz,tram,"52.52039497,13.29942701",,,53,Charlottenburg-Wilmersdorf,Charlottenburg,west
196530,Klausenerplatz,tram,"52.51920201,13.29186737",,,53,Charlottenburg-Wilmersdorf,Charlottenburg,west
196531,Kirschenallee Ecke Spandauerdamm,tram,"52.52038534,13.26714901",,,53,Charlottenburg-Wilmersdorf,Westend,west
196532,Schloß Ruhwald,tram,"52.52160458,13.26039687",,,53,Charlottenburg-Wilmersdorf,Westend,west
196533,U-Bhf. Ruhleben,tram,"52.52595777,13.24137187",,,53,Spandau,Spandau,west
196534,Teltowerstrasse Ecke Ruhlebenerstrasse,tram,"52.52649488,13.21644671",,,53,Spandau,Wilhelmstadt,west
196535,Freiheit,tram,"52.53269779,13.20751844",,,53,Spandau,Spandau,west
196536,Spandauer Markt,tram,"52.53687071,13.20531554",,,53,Spandau,Spandau,west
196537,Hafenplatz,tram,"52.54229255,13.20620113",,,53,Spandau,Spandau,west
196538,Lynarstrasse Ecke Neuendorferstrasse,tram,"52.54898037,13.21025253",,,53,Spandau,Hakenfelde,west
196539,Hohenzollernring Ecke Streitstrasse,tram,"52.55572554,13.20753076",,,53,Spandau,Hakenfelde,west
196540,"Hakenfelde, Niederneuendorferallee",tram,"52.57049943,13.21252012",,,53,Spandau,Hakenfelde,west
196541,Lynarstrasse Ecke Schönwalderstrasse,tram,"52.54844825,13.20081057",,,54,Spandau,Spandau,west
196542,"Spandau, Johannesstift",tram,"52.56762417,13.19178261",,,54,Spandau,Hakenfelde,west
196543,Bhf. Zoo,tram,"52.50719346,13.33262988",,,55,Spandau,Hakenfelde,west
196544,Ernst-Reuter-Platz,tram,"52.51159182,13.32257153",,,55,Charlottenburg-Wilmersdorf,Charlottenburg,west
196545,Otto-Suhr-Allee Ecke Leibnizstrasse,tram,"52.51465062,13.31519191",,,55,Charlottenburg-Wilmersdorf,Charlottenburg,west
196546,Osnabrückerstrasse Ecke Tegelerweg,tram,"52.52651985,13.29732033",,,55,Charlottenburg-Wilmersdorf,Charlottenburg,west
196547,Jakob-Kaiser-Platz,tram,"52.53674528,13.29357089",,,55,Charlottenburg-Wilmersdorf,Charlottenburg-Nord,west
196548,Quellweg Ecke Nonnendammallee,tram,"52.53662795,13.26837045",,,55,Charlottenburg-Wilmersdorf,Charlottenburg,west
196549,Paulsternstrasse Ecke Gartenfelderstrasse,tram,"52.54412196,13.24701046",,,55,Spandau,Haselhorst,west
196550,Zitadellenweg Ecke Am Juliusturm,tram,"52.53777974,13.21728515",,,55,Spandau,Siemensstadt,west
196551,Carl-Schurz-Strasse Ecke Am Juliusturm,tram,"52.53954502,13.20555083",,,55,Spandau,Spandau,west
196552,Hohenzollernring Ecke Neuendorferstrasse,tram,"52.55571250,13.20754149",,,55,Spandau,Hakenfelde,west
196553,Hakenfelde,tram,"52.57886010,13.21005780",,,55,Spandau,Hakenfelde,west
196554,"Zoo, Kantstrasse",tram,"52.50528855,13.33160349",,,75,Spandau,Hakenfelde,west
196555,Leibnizstrasse Ecke Kantstrasse,tram,"52.50628812,13.31395372",,,75,Spandau,Hakenfelde,west
196556,Wilmersdorferstrasse Ecke Kantstrasse,tram,"52.50669450,13.30667544",,,75,Charlottenburg-Wilmersdorf,Charlottenburg,west
196557,Amtsgericht,tram,"52.50682618,13.29739145",,,75,Charlottenburg-Wilmersdorf,Charlottenburg,west
196558,Messedamm,tram,"52.50641939,13.28039244",,,75,Charlottenburg-Wilmersdorf,Westend,west
196559,Theodor-Heuss-Platz,tram,"52.50948066,13.27259770",,,75,Charlottenburg-Wilmersdorf,Westend,west
196560,Preußenallee Ecke Heerstrasse,tram,"52.50859211,13.25931279",,,75,Charlottenburg-Wilmersdorf,Westend,west
196561,Reichssportfeldstrasse Ecke Heerstrasse,tram,"52.50751473,13.24208670",,,75,Charlottenburg-Wilmersdorf,Westend,west
196562,Stößenseebrücke,tram,"52.50889437,13.21747597",,,75,Charlottenburg-Wilmersdorf,Westend,west
196563,Pichelsdorferstrasse Ecke Heerstrasse,tram,"52.51311471,13.19691856",,,75,Charlottenburg-Wilmersdorf,Westend,west
196564,Seeburgerstrasse Ecke Klosterstrasse,tram,"52.52914199,13.19558478",,,75,Spandau,Wilhelmstadt,west
196565,Rathaus Spandau,tram,"52.53488082,13.19905885",,,75,Spandau,Spandau,west
196566,"Spandau, Markt",tram,"52.53784350,13.20413543",,,75,Spandau,Spandau,west
196567,Hohenzollernring Ecke Schönwalderstrasse,tram,"52.55536761,13.19859324",,,76,Spandau,Hakenfelde,west
196568,Johannesstift,tram,"52.56762417,13.19178261",,,76,Spandau,Hakenfelde,west
196569,Lindenstrasse Ecke Kochstrasse,tram,"52.50708787,13.39827979",,,96,Friedrichshain-Kreuzberg,Kreuzberg,west
196570,Mehringplatz,tram,"52.49792491,13.39108107",,,96,Spandau,Hakenfelde,west
196571,Yorckstrasse Ecke Mehringdamm,tram,"52.49288890,13.38767014",,,96,Friedrichshain-Kreuzberg,Kreuzberg,west
196572,U-Bhf. Flughafen,tram,"52.48477998,13.38596223",,,96,Tempelhof-Schöneberg,Tempelhof,west
196573,Adolf-Scheidt-Platz,tram,"52.47819486,13.37836902",,,96,Friedrichshain-Kreuzberg,Kreuzberg,west
196574,Berlinickeplatz,tram,"52.46632968,13.37814469",,,96,Tempelhof-Schöneberg,Tempelhof,west
196575,Attilaplatz,tram,"52.45549834,13.37561964",,,96,Tempelhof-Schöneberg,Tempelhof,west
196576,Ringstrasse Ecke Attilastrasse,tram,"52.44731185,13.36209225",,,96,Tempelhof-Schöneberg,Tempelhof,west
196577,"Lankwitz, Kirche",tram,"52.43629411,13.34577794",,,96,Steglitz-Zehlendorf,Lankwitz,west
196578,Seydlitzstrasse Ecke Kaiser-Wilhelm-Strasse,tram,"52.43194429,13.33814378",,,96,Steglitz-Zehlendorf,Lankwitz,west
196579,Kranoldplatz,tram,"52.42782085,13.32657579",,,96,Steglitz-Zehlendorf,Lichterfelde,west
196580,Ostpreußendamm Ecke Morgensternstrasse,tram,"52.42589579,13.31710731",,,96,Steglitz-Zehlendorf,Lankwitz,west
196581,Giesensdorferstrasse Ecke Ostpreußendamm,tram,"52.42400572,13.31441951",,,96,Steglitz-Zehlendorf,Lichterfelde,west
196582,"Lichterfelde, Goerzallee",tram,"52.41785382,13.28703404",,,96,Steglitz-Zehlendorf,Lichterfelde,west
