stop_name,type,line_name,stop_id,location,identifier
Pankow (Vinetastr.),u-bahn,A,19650_east,,
Schönhauser Allee,u-bahn,A,19651_east,,
Dimitroffstr.,u-bahn,A,19652_east,,
Senefelderplatz,u-bahn,A,19653_east,,
Luxemburgplatz,u-bahn,A,19654_east,,
Alexanderplatz,u-bahn,A,19655_east,,
Klosterstr.,u-bahn,A,19656_east,,
Märkisches Museum,u-bahn,A,19657_east,,
Spittelmarkt,u-bahn,A,19658_east,,
Hausvogteiplatz,u-bahn,A,19659_east,,
Stadtmitte (Mohrenstr.),u-bahn,A,196510_east,,
Thälmannplatz,u-bahn,A,196511_east,,
Alexanderplatz,u-bahn,E,196512_east,,
Schillingstr.,u-bahn,E,196513_east,,
Strausberger Platz,u-bahn,E,196514_east,,
Marchlewskistr.,u-bahn,E,196515_east,,
Frankfurter Tor,u-bahn,E,196516_east,,
Samariterstr.,u-bahn,E,196517_east,,
Frankfurter Allee (Ringbahn),u-bahn,E,196518_east,,
Magdalenenstr.,u-bahn,E,196519_east,,
Bahnhof Lichtenberg (Zentralfriedhof),u-bahn,E,196520_east,,
Friedrichsfelde (Tierpark),u-bahn,E,196521_east,,
Adalbertstrasse Ecke Köpenickerstrasse,tram,1,196522_east,,
Ostbahnhof,tram,1,196523_east,,
U-Bhf. Strausberger Platz,tram,1,196524_east,,
Leninplatz,tram,1,196525_east,,
"Alexanderplatz, Memhardstrasse",tram,1,196526_east,,
Rosenthaler Platz,tram,1,196527_east,,
Invalidenstrasse Ecke Brunnenstrasse,tram,1,196528_east,,
Chausseestrasse Ecke Invalidenstrasse,tram,1,196529_east,,
Walter-Ulbricht-Stadion,tram,1,196530_east,,
Köpenickerstrasse Ecke Adalbertstrasse,autobus,A 1 P,196531_east,,
S-Bhf. Jannowitzbrücke,autobus,A 1 P,196532_east,,
"Alexanderplatz, Grunerstrasse",autobus,A 1 P,196533_east,,
Revalerstrasse (S-Bhf. Warschauer Strasse),tram,3,196534_east,,
Kopernikusstrasse,tram,3,196535_east,,
Boxhagenerstrasse,tram,3,196536_east,,
Bhf. Frankfurter Allee,tram,3,196537_east,,
Roederplatz,tram,3,196538_east,,
HohenSchönhauser Strasse,tram,3,196539_east,,
Omnibus Bhf. Lichtenberger Strasse,tram,3,196540_east,,
Klement-Gottwald-Allee,tram,3,196541_east,,
Antonplatz,tram,3,196542_east,,
Prenzlauer Promenade,tram,3,196543_east,,
Schönhauser Allee,tram,3,196544_east,,
Björnsonstrasse,tram,3,196545_east,,
Revalerstrasse (S-Bhf. Warschauer Strasse),tram,4,196546_east,,
Grünberger Strasse Ecke Warschauerstrasse,tram,4,196547_east,,
Frankfurter Tor,tram,4,196548_east,,
Bersarinplatz,tram,4,196549_east,,
Leninallee Ecke Dimitroffstrasse,tram,4,196550_east,,
Kniprodestrasse Ecke Dimitroffstrasse,tram,4,196551_east,,
Greifswalder Strasse Ecke Dimitroffstrasse,tram,4,196552_east,,
Prenzlauer Allee Ecke Dimitroffstrasse,tram,4,196553_east,,
U-Bhf. Dimitroffstrasse,tram,4,196554_east,,
Eberswalder Strasse,tram,4,196555_east,,
Heinrich-Heine-Strasse Ecke Schmidstrasse,tram,11,196556_east,,
S-Bhf. Jannowitzbrücke,tram,11,196557_east,,
"Alexanderplatz, Memhardstrasse",tram,11,196558_east,,
Rosenthaler Platz,tram,11,196559_east,,
Brunnenstrasse Ecke Invalidenstrasse,tram,11,196560_east,,
Invalidenstrasse Ecke Chausseestrasse,tram,11,196561_east,,
Oranienburger Tor,tram,11,196562_east,,
Clara-Zetkin-Strasse Ecke Friedrichstrasse,tram,11,196563_east,,
Am Kupfergraben,tram,11,196564_east,,
Hönower Wiesenweg Ecke Blockdammweg,tram,13,196565_east,,
Kraftwerk Klingenberg,tram,13,196566_east,,
S-Bhf. Rummelsburg,tram,13,196567_east,,
Holteistrasse Ecke Boxhagenerstrasse,tram,13,196568_east,,
Frankfurter Tor,tram,13,196569_east,,
Bersarinplatz,tram,13,196570_east,,
Leninallee Ecke Dimitroffstrasse,tram,13,196571_east,,
Kniprodestrasse Ecke Dimitroffstrasse,tram,13,196572_east,,
Greifswalder Strasse Ecke Dimitroffstrasse,tram,13,196573_east,,
Prenzlauer Allee Ecke Dimitroffstrasse,tram,13,196574_east,,
U-Bhf. Dimitroffstrasse,tram,13,196575_east,,
Oderberger Strasse Ecke Eberswalderstrasse,tram,13,196576_east,,
"Rosenthal, Hauptstrasse",tram,22,196577_east,,
Nordendstrasse,tram,22,196578_east,,
Kurt-Fischer-Platz,tram,22,196579_east,,
"Pankow, Rathaus",tram,22,196580_east,,
"Pankow, Kirche",tram,22,196581_east,,
S-Bhf. Pankow,tram,22,196582_east,,
U-Bhf. Pankow,tram,22,196583_east,,
S-Bhf. Schönhauser Allee,tram,22,196584_east,,
U-Bhf. Dimitroffstrasse,tram,22,196585_east,,
Rosenthaler Platz,tram,22,196586_east,,
"Alexanderplatz, Memhardstrasse",tram,22,196587_east,,
S-Bhf. Jannowitzbrücke,tram,22,196588_east,,
Nordend,tram,46,196589_east,,
Ossietzkyplatz,tram,46,196590_east,,
Kurt-Fischer-Platz,tram,46,196591_east,,
"Pankow, Kirche",tram,46,196592_east,,
S-Bhf. Pankow,tram,46,196593_east,,
U-Bhf. Pankow,tram,46,196594_east,,
S-Bhf. Schönhauser Allee,tram,46,196595_east,,
U-Bhf. Dimitroffstrasse,tram,46,196596_east,,
Brunnenstrasse Ecke Invalidenstrasse,tram,46,196597_east,,
Oranienburger Tor,tram,46,196598_east,,
Bhf. Friedrichstrasse,tram,46,196599_east,,
Am Kupfergraben,tram,46,1965100_east,,
"Niederschönhausen, Idastrasse",tram,46P,1965101_east,,
Ossietzkyplatz,tram,46P,1965102_east,,
"Buchholz, Hauptstrasse",tram,49,1965103_east,,
Industriebahn,tram,49,1965104_east,,
Galenusstrasse,tram,49,1965105_east,,
S-Bhf. Pankow-Heinersdorf,tram,49,1965106_east,,
Klaustalerstrasse Ecke Damerowstrasse,tram,49,1965107_east,,
"Pankow, Kirche",tram,49,1965108_east,,
S-Bhf. Pankow,tram,49,1965109_east,,
U-Bhf. Pankow,tram,49,1965110_east,,
S-Bhf. Schönhauser Allee,tram,49,1965111_east,,
U-Bhf. Dimitroffstrasse,tram,49,1965112_east,,
Rosenthaler Platz,tram,49,1965113_east,,
Hackescher Markt,tram,49,1965114_east,,
"Hohenschönhausen, Gartenstadt",tram,63,1965115_east,,
Falkenbergerstrasse Ecke Wartenberger Strasse,tram,63,1965116_east,,
Berlinerstrasse Ecke Hauptstrasse,tram,63,1965117_east,,
Degnerstrasse,tram,63,1965118_east,,
Weißenseer Weg,tram,63,1965119_east,,
Steuerhaus,tram,63,1965120_east,,
Dimitroffstrasse Ecke Landsberger Allee,tram,63,1965121_east,,
Leninplatz,tram,63,1965122_east,,
"Alexanderplatz, Memhardstrasse",tram,63,1965123_east,,
Hackescher Markt,tram,63,1965124_east,,
"Hohenschönhausen, Falkenberger Strasse",tram,64,1965125_east,,
Berlinerstrasse Ecke Falkenbergerstrasse,tram,64,1965126_east,,
Degnerstrasse,tram,64,1965127_east,,
Weißenseer Weg,tram,64,1965128_east,,
Steuerhaus,tram,64,1965129_east,,
Dimitroffstrasse Ecke Landsberger Allee,tram,64,1965130_east,,
Leninplatz,tram,64,1965131_east,,
"Alexanderplatz, Leninallee",tram,64,1965132_east,,
S-Bhf. Jannowitzbrücke,tram,64,1965133_east,,
Spittelmarkt,tram,64,1965134_east,,
Dönhoffplatz,tram,64,1965135_east,,
"Johannisthal, Haeckelstrasse",tram,69,1965136_east,,
Bhf. Schöneweide,tram,69,1965137_east,,
Wilhelminenhofstrasse,tram,69,1965138_east,,
S-Bhf. Karlshorst,tram,69,1965139_east,,
Hochschule für Ökonomie,tram,69,1965140_east,,
Tierpark Berlin,tram,69,1965141_east,,
Alt-Friedrichsfelde Ecke Am Tierpark,tram,69,1965142_east,,
Bhf. Lichtenberg,tram,69,1965143_east,,
Strab. Bhf. Siegfriedstrasse,tram,69,1965144_east,,
Herzbergstrasse,tram,69,1965145_east,,
Roederplatz,tram,69,1965146_east,,
Steuerhaus,tram,69,1965147_east,,
Dimitroffstrasse Ecke Landsberger Allee,tram,69,1965148_east,,
Leninplatz,tram,69,1965149_east,,
"Alexanderplatz, Memhardstrasse",tram,69,1965150_east,,
Hackescher Markt,tram,69,1965151_east,,
Oranienburger Tor,tram,69,1965152_east,,
Walter-Ulbricht-Stadion,tram,69,1965153_east,,
"Johannisthal, Haeckelstrasse",tram,69 E,1965154_east,,
Bhf. Schöneweide,tram,69 E,1965155_east,,
Wilhelminenhofstrasse,tram,69 E,1965156_east,,
S-Bhf. Karlshorst,tram,69 E,1965157_east,,
Hochschule für Ökonomie,tram,69 E,1965158_east,,
Tierpark Berlin,tram,69 E,1965159_east,,
Alt-Friedrichsfelde Ecke Am Tierpark,tram,69 E,1965160_east,,
Bhf. Lichtenberg,tram,69 E,1965161_east,,
Strab. Bhf. Siegfriedstrasse,tram,69 E,1965162_east,,
Herzbergstrasse,tram,69 E,1965163_east,,
Roederplatz,tram,69 E,1965164_east,,
Steuerhaus,tram,69 E,1965165_east,,
Dimitroffstrasse Ecke Landsberger Allee,tram,69 E,1965166_east,,
Kniprodestrasse Ecke Dimitroffstrasse,tram,69 E,1965167_east,,
"Hohenschönhausen, Falkenberger Strasse",tram,70,1965168_east,,
Berliner Strasse Ecke Suermondtstrasse,tram,70,1965169_east,,
Stadion Buschallee,tram,70,1965170_east,,
Buschallee Ecke Klement-Gottwald-Allee,tram,70,1965171_east,,
Lichtenberger Strasse Ecke Klement-Gottwald-Allee,tram,70,1965172_east,,
Antonplatz,tram,70,1965173_east,,
Prenzlauer Promenade Ecke Ostseestrasse,tram,70,1965174_east,,
Humannplatz,tram,70,1965175_east,,
U-Bhf. Dimitroffstrasse,tram,70,1965176_east,,
Brunnenstrasse Ecke Veteranenstrasse,tram,70,1965177_east,,
Chausseestrasse Ecke Invalidenstrasse,tram,70,1965178_east,,
Oranienburger Tor,tram,70,1965179_east,,
Bhf. Friedrichstrasse,tram,70,1965180_east,,
Am Kupfergraben,tram,70,1965181_east,,
"Heinersdorf, Romain-Rolland-Strasse",tram,71,1965182_east,,
"Heinersdorf, Kirche",tram,71,1965183_east,,
Am Steinberg,tram,71,1965184_east,,
Prenzlauer Promenade Ecke Ostseestrasse,tram,71,1965185_east,,
S-Bhf. Prenzlauer Allee,tram,71,1965186_east,,
Dimitroffstrasse Ecke Prenzlauer Allee,tram,71,1965187_east,,
Saarbrückerstrasse Ecke Prenzlauer Allee,tram,71,1965188_east,,
"Alexanderplatz, Memhardstrasse",tram,71,1965189_east,,
S-Bhf. Jannowitzbrücke,tram,71,1965190_east,,
Molkenmarkt,tram,71,1965191_east,,
"Weißensee, Pasedagplatz",tram,72,1965192_east,,
Buschallee Ecke Klement-Gottwald-Allee,tram,72,1965193_east,,
Lichtenberger Strasse,tram,72,1965194_east,,
Antonplatz,tram,72,1965195_east,,
Prenzlauer Promenade,tram,72,1965196_east,,
S-Bhf. Prenzlauer Allee,tram,72,1965197_east,,
Prenzlauer Allee Ecke Dimitroffstrasse,tram,72,1965198_east,,
Saarbrücker Strasse Ecke Prenzlauer Allee,tram,72,1965199_east,,
"Alexanderplatz, Memhardstrasse",tram,72,1965200_east,,
Spittelmarkt,tram,72,1965201_east,,
Charlottenstrasse,tram,72,1965202_east,,
Taubenstrasse Ecke Glinkastrasse,tram,72,1965203_east,,
Bernkasteler Strasse Ecke Klement-Gottwald-Allee,tram,74 E,1965204_east,,
Klement-Gottwald-Allee Ecke Buschallee,tram,74 E,1965205_east,,
Lichtenberger Strasse Ecke Klement-Gottwald-Allee,tram,74 E,1965206_east,,
Antonplatz,tram,74 E,1965207_east,,
S-Bhf. Greifswalder Strasse,tram,74 E,1965208_east,,
Dimitroffstrasse Ecke Greifswalderstrasse,tram,74 E,1965209_east,,
Königstor,tram,74 E,1965210_east,,
"Alexanderplatz, Memhardstrasse",tram,74 E,1965211_east,,
S-Bhf. Jannowitzbrücke,tram,74 E,1965212_east,,
Spittelmarkt,tram,74 E,1965213_east,,
"Weißensee, Pasedagplatz",tram,74,1965214_east,,
Buschallee Ecke Klement-Gottwald-Strasse,tram,74,1965215_east,,
Lichtenberger-Strasse Ecke Klement-Gottwald-Strasse,tram,74,1965216_east,,
Antonplatz,tram,74,1965217_east,,
S-Bhf. Greifswalder Strasse,tram,74,1965218_east,,
Greifswalderstrasse Ecke Dimitroffstrasse,tram,74,1965219_east,,
Königstor,tram,74,1965220_east,,
"Alexanderplatz, Memhardstrasse",tram,74,1965221_east,,
Molkenmarkt,tram,74,1965222_east,,
Spittelmarkt,tram,74,1965223_east,,
Leipziger Strasse Ecke Otto-Grotewohl-Strasse,tram,74,1965224_east,,
"Mahlsdorf-Süd, Hubertus",tram,82,1965225_east,,
S-Bhf. Köpenick,tram,82,1965226_east,,
Lindenstrasse/Hegelschule,tram,82,1965227_east,,
Pionierpark,tram,82,1965228_east,,
Wilhelminenhofstrasse Ecke Edisonstrasse,tram,82,1965229_east,,
Heinrich-Duncker-Strasse Ecke Ehrlichstrasse,tram,82,1965230_east,,
Kraftwerk Klingenberg,tram,82,1965231_east,,
S-Bhf. Ostkreuz,tram,82,1965232_east,,
Stralauer Allee Ecke Markgrafendamm,tram,82,1965233_east,,
Warschauer Strasse,tram,82,1965234_east,,
Ostbahnhof,tram,82,1965235_east,,
S-Bhf. Jannowitzbrücke,tram,82,1965236_east,,
"Alexanderplatz, Memhardstrasse",tram,82,1965237_east,,
Brunnenstrasse Ecke Invalidenstrasse,tram,82,1965238_east,,
Chausseestrasse Ecke Invalidenstrasse,tram,82,1965239_east,,
Walter-Ulbricht-Stadion,tram,82,1965240_east,,
Wendenschloß,tram,83,1965241_east,,
VEB Schiffswerft,tram,83,1965242_east,,
RFT-Werk,tram,83,1965243_east,,
Betriebsstelle Köpenick,tram,83,1965244_east,,
Lindenstrasse Ecke Bahnhofstrasse,tram,83,1965245_east,,
S-Bhf. Köpenick,tram,83,1965246_east,,
Mahlsdorf-Süd,tram,83,1965247_east,,
Bürgerwäldchen,tram,83,1965248_east,,
Rahnsdorfer Strasse,tram,83,1965249_east,,
S-Bhf. Mahlsdorf,tram,83,1965250_east,,
Am Falkenberg,tram,84,1965251_east,,
"Altglienicke, Kirche",tram,84,1965252_east,,
S-Bhf. Adlershof,tram,84,1965253_east,,
S-Bhf. Spindlersfeld,tram,84,1965254_east,,
Luisenhain,tram,84,1965255_east,,
Bahnhofstrasse Ecke Lindenstrasse,tram,84,1965256_east,,
Seelenbinderstrasse Ecke Bahnhofstrasse,tram,84,1965257_east,,
Hirschgarten,tram,84,1965258_east,,
S-Bhf. Friedrichshagen,tram,84,1965259_east,,
"Bölschestrasse, Brauerei",tram,84,1965260_east,,
"Friedrichshagen, Wasserwerk",tram,84,1965261_east,,
Wendenschloß,tram,85,1965262_east,,
VEB Schiffswerft,tram,85,1965263_east,,
RFT-Werk,tram,85,1965264_east,,
Betriebsstelle Köpenick,tram,85,1965265_east,,
Lindenstrasse/Hegelschule,tram,85,1965266_east,,
Parkstrasse,tram,85,1965267_east,,
Edisonstrasse,tram,85,1965268_east,,
Bhf. Schöneweide,tram,85,1965269_east,,
"Johannisthal, Haeckelstrasse",tram,85,1965270_east,,
Alt-Schmöckwitz,tram,86,1965271_east,,
Karolinenhof Mitte,tram,86,1965272_east,,
Richtershorn,tram,86,1965273_east,,
Freibad Grünau,tram,86,1965274_east,,
S-Bhf. Grünau,tram,86,1965275_east,,
Chemische Fabrik,tram,86,1965276_east,,
Grünstrasse,tram,86,1965277_east,,
Bahnhofstrasse,tram,86,1965278_east,,
S-Bhf. Köpenick,tram,86,1965279_east,,
Hirtestrasse,tram,86,1965280_east,,
"Mahlsdorf-Süd, Hubertus",tram,86,1965281_east,,
Rahnsdorf,tram,87,1965282_east,,
Wasserwerk,tram,87,1965283_east,,
S-Bhf. Friedrichshagen,tram,87,1965284_east,,
"Bölschestrasse, Brauerei",tram,87,1965285_east,,
Hirschgarten,tram,87,1965286_east,,
Seelenbinderstrasse Ecke Bahnhofstrasse,tram,87,1965287_east,,
Bahnhofstrasse Ecke Lindenstrasse,tram,87,1965288_east,,
Parkstrasse,tram,87,1965289_east,,
Wilhelminenhofstrasse Ecke Edisonstrasse,tram,87,1965290_east,,
Bhf. Schöneweide,tram,87,1965291_east,,
Kali-Chemie,tram,87,1965292_east,,
Köpenicker Landstrasse Ecke Baumschulenstrasse,tram,87,1965293_east,,
S-Bhf. Plänterwald,tram,87,1965294_east,,
Am Treptower Park Ecke Elsenstrasse,tram,87,1965295_east,,
Wiener Brücke,tram,87,1965296_east,,
"Oberspree, Bruno-Bürgel-Weg",tram,92,1965297_east,,
Bhf. Schöneweide,tram,92,1965298_east,,
Kali-Chemie,tram,92,1965299_east,,
Baumschulenstrasse Ecke Köpenicker Landstrasse,tram,92,1965300_east,,
S-Bhf. Baumschulenweg,tram,92,1965301_east,,
Sonnenallee Ecke Baumschulenstrasse,tram,92,1965302_east,,
Krankenhaus Köpenick,tram,95,1965303_east,,
Lindenstrasse Ecke Hegelschule,tram,95,1965304_east,,
Parkstrasse,tram,95,1965305_east,,
Edisonstrasse,tram,95,1965306_east,,
Bhf. Schöneweide,tram,95,1965307_east,,
Kali-Chemie,tram,95,1965308_east,,
Baumschulenstrasse Ecke Köpenicker Landstrasse,tram,95,1965309_east,,
S-Bhf. Plänterwald,tram,95,1965310_east,,
Elsenstrasse Ecke Am Treptower Park,tram,95,1965311_east,,
Wiener Brücke,tram,95,1965312_east,,
S-Bhf. Friedrichshagen (Grenze),tram,"S-Bhf. Friedrichshagen <> Rüdersdorf, Karl-Marx-Platz (VEB Schöneiche-Rüdersdorf)",1965313_east,,
"Schöneiche, Waldstrasse",tram,"S-Bhf. Friedrichshagen <> Rüdersdorf, Karl-Marx-Platz (VEB Schöneiche-Rüdersdorf)",1965314_east,,
"Schöneiche, Goethepark",tram,"S-Bhf. Friedrichshagen <> Rüdersdorf, Karl-Marx-Platz (VEB Schöneiche-Rüdersdorf)",1965315_east,,
"Schöneiche, Dorfstrasse",tram,"S-Bhf. Friedrichshagen <> Rüdersdorf, Karl-Marx-Platz (VEB Schöneiche-Rüdersdorf)",1965316_east,,
"Schöneiche, Dorfaue",tram,"S-Bhf. Friedrichshagen <> Rüdersdorf, Karl-Marx-Platz (VEB Schöneiche-Rüdersdorf)",1965317_east,,
"Schöneiche, Schillerstrasse",tram,"S-Bhf. Friedrichshagen <> Rüdersdorf, Karl-Marx-Platz (VEB Schöneiche-Rüdersdorf)",1965318_east,,
"Schöneiche, Grätzwalde",tram,"S-Bhf. Friedrichshagen <> Rüdersdorf, Karl-Marx-Platz (VEB Schöneiche-Rüdersdorf)",1965319_east,,
"Schöneiche, Jägerstrasse",tram,"S-Bhf. Friedrichshagen <> Rüdersdorf, Karl-Marx-Platz (VEB Schöneiche-Rüdersdorf)",1965320_east,,
"Rüdersdorf, Berghof",tram,"S-Bhf. Friedrichshagen <> Rüdersdorf, Karl-Marx-Platz (VEB Schöneiche-Rüdersdorf)",1965321_east,,
"Rüdersdorf, Thälmannstrasse",tram,"S-Bhf. Friedrichshagen <> Rüdersdorf, Karl-Marx-Platz (VEB Schöneiche-Rüdersdorf)",1965322_east,,
"Rüdersdorf, Heinitzstrasse",tram,"S-Bhf. Friedrichshagen <> Rüdersdorf, Karl-Marx-Platz (VEB Schöneiche-Rüdersdorf)",1965323_east,,
"Rüdersdorf, Post",tram,"S-Bhf. Friedrichshagen <> Rüdersdorf, Karl-Marx-Platz (VEB Schöneiche-Rüdersdorf)",1965324_east,,
"Rüdersdorf, Schulstrasse",tram,"S-Bhf. Friedrichshagen <> Rüdersdorf, Karl-Marx-Platz (VEB Schöneiche-Rüdersdorf)",1965325_east,,
"Rüdersdorf, Karl-Marx-Platz",tram,"S-Bhf. Friedrichshagen <> Rüdersdorf, Karl-Marx-Platz (VEB Schöneiche-Rüdersdorf)",1965326_east,,
S-Bhf. Rahnsdorf,tram,S-Bhf. Rahnsdorf <> Woltersdorfer Schleuse (VEB Woltersdorf),1965327_east,,
Goethestrasse,tram,S-Bhf. Rahnsdorf <> Woltersdorfer Schleuse (VEB Woltersdorf),1965328_east,,
Eichendamm,tram,S-Bhf. Rahnsdorf <> Woltersdorfer Schleuse (VEB Woltersdorf),1965329_east,,
Lerchenstrasse,tram,S-Bhf. Rahnsdorf <> Woltersdorfer Schleuse (VEB Woltersdorf),1965330_east,,
Fasanenstrasse,tram,S-Bhf. Rahnsdorf <> Woltersdorfer Schleuse (VEB Woltersdorf),1965331_east,,
Thälmannplatz,tram,S-Bhf. Rahnsdorf <> Woltersdorfer Schleuse (VEB Woltersdorf),1965332_east,,
Blumenstrasse,tram,S-Bhf. Rahnsdorf <> Woltersdorfer Schleuse (VEB Woltersdorf),1965333_east,,
"Woltersdorf, Krankenhaus",tram,S-Bhf. Rahnsdorf <> Woltersdorfer Schleuse (VEB Woltersdorf),1965334_east,,
Woltersdorfer Schleuse,tram,S-Bhf. Rahnsdorf <> Woltersdorfer Schleuse (VEB Woltersdorf),1965335_east,,
Kosterstrasse,omnibus,O30,1965336_east,,
Andreasstrasse,omnibus,O30,1965337_east,,
Küstriner Platz,omnibus,O30,1965338_east,,
Warschauer Strasse,omnibus,O30,1965339_east,,
Boxhagenerstrasse Ecke Holteistrasse,omnibus,O30,1965340_east,,
S-Bhf. Rummelsburg,omnibus,O30,1965341_east,,
Weitlingstrasse,omnibus,O30,1965342_east,,
Bhf. Lichtenberg,omnibus,O30,1965343_east,,
Obus-Bf. Siegfriedstrasse,omnibus,O30,1965344_east,,
Roederplatz,omnibus,O30,1965345_east,,
Proskauer Ecke Dolziger Strasse,omnibus,O30,1965346_east,,
Ebertystrasse Ecke Leninallee,omnibus,O30,1965347_east,,
Greifswalderstrasse Ecke Dimitroffstrasse,omnibus,O30,1965348_east,,
Königstor,omnibus,O30,1965349_east,,
"Alexanderplatz, Neue Königstrasse",omnibus,O30,1965350_east,,
Klosterstrasse,omnibus,O30,1965351_east,,
Dimitroffstrasse vor Cotheniusstrasse,omnibus,O37,1965352_east,,
S-Bhf. Leninallee,omnibus,O37,1965353_east,,
Weißenseer Weg,omnibus,O37,1965354_east,,
Genslerstrasse Ecke Landsberger Chaussee,omnibus,O37,1965355_east,,
Dingelstädterstrasse Ecke Landsberger Chaussee,omnibus,O37,1965356_east,,
Bürknersfelde,omnibus,O37,1965357_east,,
Marzahner Chaussee Ecke Berliner Chaussee,omnibus,O37,1965358_east,,
"Alt-Marzahn, Kirche",omnibus,O37,1965359_east,,
Elisabethstrasse,omnibus,O37,1965360_east,,
Boschpolerstrasse,omnibus,O37,1965361_east,,
S-Bhf. Biesdorf,omnibus,O37,1965362_east,,
"Alt-Biesdorf, Oberfeldstrasse",omnibus,O37,1965363_east,,
"Alt-Friedrichsfelde, Am Tierpark",omnibus,O37,1965364_east,,
Bhf. Lichtenberg,omnibus,O37,1965365_east,,
Ostbahnhof,omnibus,O40,1965366_east,,
Küstriner Platz,omnibus,O40,1965367_east,,
Karl-Marx-Allee,omnibus,O40,1965368_east,,
Leninplatz,omnibus,O40,1965369_east,,
Königstor,omnibus,O40,1965370_east,,
Prenzlauer Tor,omnibus,O40,1965371_east,,
Rosenthaler Platz,omnibus,O40,1965372_east,,
Oranienburger Tor,omnibus,O40,1965373_east,,
Robert-Koch-Platz,omnibus,O40,1965374_east,,
Lutherstrasse Ecke Lindenstrasse,autobus,A22,1965375_east,,
Fahlenbergstrasse Ecke Fürstenwalder Allee,autobus,A22,1965376_east,,
S-Bhf. Wilhelmshagen,autobus,A22,1965377_east,,
Zentralschule,autobus,A22,1965378_east,,
Waldschänke,autobus,A22,1965379_east,,
S-Bhf. Rahnsdorf,autobus,A22,1965380_east,,
"Fichtenau, Stadtgrenze",autobus,A22,1965381_east,,
Falkenhöhe,autobus,A23,1965382_east,,
S-Bhf. Grünbergallee,autobus,A23,1965383_east,,
S-Bhf. Altglienicke,autobus,A23,1965384_east,,
Normannenstrasse,autobus,A23,1965385_east,,
Wolfmarsteig,autobus,A23,1965386_east,,
"Altglienicke, Schönefelder Chaussee",autobus,A23,1965387_east,,
"Altglienicke, Kirche",autobus,A23,1965388_east,,
VEB Bautransporte,autobus,A26,1965389_east,,
Bhf. Schöneweide,autobus,A26,1965390_east,,
"S-Bhf. Kaulsdorf, Planitzstrasse",autobus,A27,1965391_east,,
Chemnitzer Strasse Ecke Alt-Kaulsdorf,autobus,A27,1965392_east,,
Ulmenstrasse,autobus,A27,1965393_east,,
Wongrowitzer Steig,autobus,A27,1965394_east,,
S-Bhf. Köpenick,autobus,A27,1965395_east,,
Bahnhofstrasse Ecke Lindenstrasse,autobus,A27,1965396_east,,
Schloßplatz,autobus,A27,1965397_east,,
Wendenschloßstrasse Ecke Müggelheimerstrasse,autobus,A27,1965398_east,,
"Köpenick, Krankenhaus",autobus,A27,1965399_east,,
Chausseehaus,autobus,A27,1965400_east,,
Müggelseeperle,autobus,A27,1965401_east,,
Müggelheim,autobus,A27,1965402_east,,
Zentralflughafen,autobus,A36,1965403_east,,
"Schönefeld, Kirche",autobus,A36,1965404_east,,
Bhf. Schönefeld,autobus,A36,1965405_east,,
Gartenstrasse,autobus,A36,1965406_east,,
S-Bhf. Grünbergallee,autobus,A36,1965407_east,,
"Bohnsdorf, Kirche",autobus,A36,1965408_east,,
Gartenstadtweg,autobus,A36,1965409_east,,
S-Bhf. Grünau,autobus,A36,1965410_east,,
Diepensee,autobus,AD/38,1965411_east,,
Kienberg,autobus,AD/38,1965412_east,,
Waltersdorf,autobus,AD/38,1965413_east,,
"Bohnsdorf, Waldstrasse",autobus,AD/38,1965414_east,,
Eichbuschplatz,autobus,AD/38,1965415_east,,
Joachimstrasse,autobus,AD/38,1965416_east,,
S-Bhf. Grünau,autobus,AD/38,1965417_east,,
"Wartenberg, Siedlung",autobus,A39,1965418_east,,
"Wartenberg, Dorfstrasse",autobus,A39,1965419_east,,
Falkenberger Chaussee Ecke Wartenbergerstrasse,autobus,A39,1965420_east,,
Arnimstrasse Ecke Wartenbergerstrasse,autobus,A39,1965421_east,,
"Kolonie ""Land in Sonne""",autobus,A39,1965422_east,,
"Hohenschönhausen, Falkenberger Strasse",autobus,A39,1965423_east,,
"Buch, Kiesgruben",autobus,A42,1965424_east,,
Ludwig-Hoffmann-Krankenhaus,autobus,A42,1965425_east,,
"Karower Strasse, Alt-Buch",autobus,A42,1965426_east,,
Strasse 78,autobus,A42,1965427_east,,
Alt-Karow,autobus,A42,1965428_east,,
Güteraußenring,autobus,A42,1965429_east,,
Georgenstrasse,autobus,A42,1965430_east,,
"Blankenburg, Bahnhofstrasse",autobus,A42,1965431_east,,
"Heinersdorf, Kirche",autobus,A42,1965432_east,,
Am Steinberg,autobus,A42,1965433_east,,
Prenzlauer Promenade Ecke Ostseestrasse,autobus,A42,1965434_east,,
"Marzahn, Berliner Chaussee",autobus,A43,1965435_east,,
Güterbahnhof Springpfuhl,autobus,A43,1965436_east,,
S-Bhf. Friedrichsfelde-Ost,autobus,A43,1965437_east,,
"Alt-Friedrichsfelde, Am Tierpark",autobus,A43,1965438_east,,
U-Bhf. Friedrichsfelde,autobus,A43,1965439_east,,
"Hans-Loch-Strasse, Schule",autobus,A43,1965440_east,,
S-Bhf. Nöldnerplatz,autobus,A43,1965441_east,,
"Hönow, Dorfstrasse",autobus,A44,1965442_east,,
Greifswalder Strasse,autobus,A44,1965443_east,,
Am Rosenhag,autobus,A44,1965444_east,,
S-Bhf. Mahlsdorf,autobus,A44,1965445_east,,
Hönowerstrasse Ecke Greifswalderstrasse,autobus,A44E,1965446_east,,
Am Rosenhag,autobus,A44E,1965447_east,,
S-Bhf. Mahlsdorf,autobus,A44E,1965448_east,,
"Wilhelmsruh, Schillerstrasse",autobus,A45,1965449_east,,
Hauptstrasse Ecke Edelweißstrasse,autobus,A45,1965450_east,,
Heinrich-Mann-Platz,autobus,A45,1965451_east,,
"Pankow, Rathaus",autobus,A45,1965452_east,,
"Pankow, Kirche",autobus,A45,1965453_east,,
Prenzlauer Promenade Ecke Kissingenstrasse,autobus,A45,1965454_east,,
Am Steinberg,autobus,A45,1965455_east,,
Hamburger Platz,autobus,A45,1965456_east,,
Klement-Gottwald-Allee Ecke Pistoriusstrasse,autobus,A45,1965457_east,,
Lichtenberger Strasse Ecke Klement-Gottwald-Allee,autobus,A45,1965458_east,,
Klement-Gottwald-Allee Ecke Rennbahnstrasse,autobus,A45,1965459_east,,
Feldtmannstrasse,autobus,A45,1965460_east,,
"Weißensee, Schwarzelfenweg",autobus,A45,1965461_east,,
"Ahrensfelde, Kirche",autobus,A46,1965462_east,,
LPG Falkenberg,autobus,A46,1965463_east,,
Malchower Weg,autobus,A46,1965464_east,,
Buschallee Ecke Klement-Gottwald-Allee,autobus,A46,1965465_east,,
Klement-Gottwald-Allee Ecke Rennbahnstrasse,autobus,A46,1965466_east,,
Feldtmannstrasse,autobus,A46,1965467_east,,
"Malchow, Dorfstrasse",autobus,A46,1965468_east,,
Bhf. Schöneweide,autobus,A47,1965469_east,,
Sterndamm,autobus,A47,1965470_east,,
Johannisthaler Chaussee,autobus,A47,1965471_east,,
Baumschulenstrasse Ecke Südostallee,autobus,A47,1965472_east,,
S-Bhf. Baumschulenweg,autobus,A47,1965473_east,,
Eichbuschallee,autobus,A47,1965474_east,,
"Treptow, Rathaus",autobus,A47,1965475_east,,
Sowjetisches Ehrenmal,autobus,A47,1965476_east,,
S-Bhf. Treptower Park,autobus,A47,1965477_east,,
Bhf. Schöneweide,autobus,A48,1965478_east,,
Königsheideweg,autobus,A48,1965479_east,,
Lindhorstweg,autobus,A48,1965480_east,,
Stubenrauchstrasse,autobus,A48,1965481_east,,
"Bhf. Kaulsdorf, Bausdorfstrasse",autobus,A49,1965482_east,,
Ridbacher Strasse,autobus,A49,1965483_east,,
Grottkauer Strasse,autobus,A49,1965484_east,,
Uckermarkstrasse,autobus,A49,1965485_east,,
Storkowerstrasse Ecke Greifswalderstrasse,autobus,A54,1965486_east,,
S-Bhf. Lenninallee,autobus,A54,1965487_east,,
Dimitroffstrasse Ecke Leninallee,autobus,A54,1965488_east,,
"Wilhelmsruh, Hauptstrasse",autobus,A55,1965489_east,,
Heinrich-Mann-Platz,autobus,A55,1965490_east,,
"Pankow, Rathaus",autobus,A55,1965491_east,,
"Pankow, Kirche",autobus,A55,1965492_east,,
Prenzlauer Promenade Ecke Kissingenstrasse,autobus,A55,1965493_east,,
Am Steinberg,autobus,A55,1965494_east,,
Hamburger Platz,autobus,A55,1965495_east,,
Klement-Gottwald-Allee Ecke Pistoriusstrasse,autobus,A55,1965496_east,,
Lichtenberger Strasse Ecke Klement-Gottwald-Allee,autobus,A55,1965497_east,,
Klement-Gottwald-Allee Ecke Rennbahnstrasse,autobus,A55,1965498_east,,
Klement-Gottwald-Allee Ecke Feldtmannstrasse,autobus,A55,1965499_east,,
"Weißensee, Piesporter Strasse",autobus,A55,1965500_east,,
"Weißensee, Nüßlerstrasse",autobus,A56,1965501_east,,
Gehringstrasse Ecke Gustav-Adolf-Strasse,autobus,A56,1965502_east,,
Rennbahnstrasse Ecke Gustav-Adolf-Strasse,autobus,A56,1965503_east,,
Wigandstalerstrasse Ecke Gustav-Adolf-Strasse,autobus,A56,1965504_east,,
Hamburger Platz,autobus,A56,1965505_east,,
Prenzlauer Promenade,autobus,A56,1965506_east,,
"Prenzlauer Allee, Wichertstrasse",autobus,A56,1965507_east,,
Kniprodestrasse Ecke Ermländische Strasse,autobus,A57,1965508_east,,
Dimitroffstrasse,autobus,A57,1965509_east,,
Am Friedrichshain,autobus,A57,1965510_east,,
Königstor,autobus,A57,1965511_east,,
S-Bhf. Alexanderplatz,autobus,A57,1965512_east,,
Marx-Engels-Platz,autobus,A57,1965513_east,,
Friedrichstrasse Ecke Unter den Linden,autobus,A57,1965514_east,,
Bhf. Friedrichstrasse,autobus,A57,1965515_east,,
Schumannstrasse Ecke Reinhardtstrasse,autobus,A57,1965516_east,,
Robert-Koch-Platz,autobus,A57,1965517_east,,
Fontanestrasse,autobus,A58,1965518_east,,
Hauptstrasse Ecke Hertzstrasse,autobus,A58,1965519_east,,
Heinrich-Mann-Platz,autobus,A58,1965520_east,,
"Pankow, Rathaus",autobus,A58,1965521_east,,
"Pankow, Kirche",autobus,A58,1965522_east,,
S-Bhf. Pankow,autobus,A58,1965523_east,,
U-Bhf. Pankow (Vinetastrasse),autobus,A58,1965524_east,,
Walther-Ulbricht-Stadion,autobus,A59,1965525_east,,
Invalidenstrasse,autobus,A59,1965526_east,,
Oranienburger Tor,autobus,A59,1965527_east,,
Bhf. Friedrichstrasse,autobus,A59,1965528_east,,
Französische Strasse,autobus,A59,1965529_east,,
U-Bhf. Stadtmitte,autobus,A59,1965530_east,,
U-Bhf. Thälmannplatz,autobus,A59,1965531_east,,
"Glienicke, Kirche",autobus,A7,1965532_east,,
Elsässer Strasse,autobus,A7,1965533_east,,
"Schildow, Kirche",autobus,A7,1965534_east,,
"Blankenfelde, Hauptstrasse",autobus,A7,1965535_east,,
Industriebahn,autobus,A7,1965536_east,,
Nordend,autobus,A7,1965537_east,,
Kurt-Fischer-Platz,autobus,A7,1965538_east,,
"Pankow, Rathaus",autobus,A7,1965539_east,,
Florastrasse Ecke Mühlenstrasse,autobus,A7,1965540_east,,
U-Bhf. Vinetastrasse,autobus,A7,1965541_east,,
"Schildow, Kirche",autobus,A7E,1965542_east,,
"Blankenfelde, Hauptstrasse",autobus,A7E,1965543_east,,
Industriebahn,autobus,A7E,1965544_east,,
Nordend,autobus,A7E,1965545_east,,
Kurt-Fischer-Platz,autobus,A7E,1965546_east,,
"Pankow, Rathaus",autobus,A7E,1965547_east,,
Florastrasse Ecke Mühlenstrasse,autobus,A7E,1965548_east,,
U-Bhf. Vinetastrasse,autobus,A7E,1965549_east,,
"Waldesruh, Malhlsdorfer Allee",autobus,A8,1965550_east,,
Fichtestrasse Ecke Schopenhauerstrasse,autobus,A8,1965551_east,,
Hultschiner Damm,autobus,A8,1965552_east,,
Sadowastrasse,autobus,A8,1965553_east,,
Sadowastrasse Ecke Ulmenstrasse,autobus,A8,1965554_east,,
Jägerstrasse,autobus,A8,1965555_east,,
"Biesdorf, Köpenickerstrasse",autobus,A8,1965556_east,,
Dohlengrund,autobus,A8,1965557_east,,
"Alt-Biesdorf, Oberfeldstrasse",autobus,A8,1965558_east,,
"Alt-Friedrichsfelde, Am Tierpark",autobus,A8,1965559_east,,
U-Bhf. Friedrichsfelde,autobus,A8,1965560_east,,
Sadowastrasse,autobus,A8E,1965561_east,,
Sadowastrasse Ecke Ulmenstrasse,autobus,A8E,1965562_east,,
Jägerstrasse,autobus,A8E,1965563_east,,
"Biesdorf, Köpenickerstrasse",autobus,A8E,1965564_east,,
Dohlengrund,autobus,A8E,1965565_east,,
"Alt-Biesdorf, Oberfeldstrasse",autobus,A8E,1965566_east,,
"Alt-Friedrichsfelde, Am Tierpark",autobus,A8E,1965567_east,,
U-Bhf. Friedrichsfelde,autobus,A8E,1965568_east,,
Kurische Strasse,autobus,A9,1965569_east,,
Arnswalder Platz,autobus,A9,1965570_east,,
Königstor,autobus,A9,1965571_east,,
S-Bhf. Alexanderplatz,autobus,A9,1965572_east,,
Marx-Engels-Platz,autobus,A9,1965573_east,,
Friedrichstrasse Ecke Unter den Linden,autobus,A9,1965574_east,,
Bhf. Friedrichstrasse,autobus,A9,1965575_east,,
Oranienburger Tor,autobus,A9,1965576_east,,
Platz vor dem Neuen Tor,autobus,A9,1965577_east,,
Scharnhorststrasse Ecke Kieler Strasse,autobus,A9,1965578_east,,
Neu-Lindenberg,autobus,AL,1965579_east,,
"Lindenberg, Schule",autobus,AL,1965580_east,,
"Lindenberg, Dorf",autobus,AL,1965581_east,,
"Lindenberg, Mühle",autobus,AL,1965582_east,,
"Malchow, Dorfstrasse",autobus,AL,1965583_east,,
Zühlsdorf,autobus,AS,1965584_east,,
"Summt, Seegarten",autobus,AS,1965585_east,,
"Triftweg, LPG",autobus,AS,1965586_east,,
"Mühlenbeck, Schule",autobus,AS,1965587_east,,
Mönchmühle,autobus,AS,1965588_east,,
"Schildow, Kirche",autobus,AS,1965589_east,,
"Groß Ziethen, Friedrich-Ebert-Strasse",autobus,AZ,1965590_east,,
Klein Ziethen,autobus,AZ,1965591_east,,
Waßmannsdorf,autobus,AZ,1965592_east,,
"Schönefeld, Kirche",autobus,AZ,1965593_east,,
Bhf. Schönefeld,autobus,AZ,1965594_east,,
Friedrichstr.,s-bahn,KBS 101,1965595_east,,
Marx-Engels-Platz,s-bahn,KBS 101,1965596_east,,
Alexanderplatz,s-bahn,KBS 101,1965597_east,,
Jannowitzbrücke,s-bahn,KBS 101,1965598_east,,
Ostbahnhof,s-bahn,KBS 101,1965599_east,,
Warschauer Str.,s-bahn,KBS 101,1965600_east,,
Ostkreuz,s-bahn,KBS 101,1965601_east,,
Nöldnerplatz,s-bahn,KBS 101,1965602_east,,
Lichtenberg,s-bahn,KBS 101,1965603_east,,
Friedrichsfelde Ost,s-bahn,KBS 101,1965604_east,,
Biesdorf,s-bahn,KBS 101,1965605_east,,
Kaulsdorf,s-bahn,KBS 101,1965606_east,,
Mahlsdorf,s-bahn,KBS 101,1965607_east,,
Hoppegarten (Mark),s-bahn,KBS 101,1965608_east,,
Neuenhagen (b Bln),s-bahn,KBS 101,1965609_east,,
Fredersdorf (b Bln),s-bahn,KBS 101,1965610_east,,
Petershagen Nord,s-bahn,KBS 101,1965611_east,,
Strausberg,s-bahn,KBS 101,1965612_east,,
Strausberg,s-bahn,KBS 101c,1965613_east,,
Strausberg Stadt,s-bahn,KBS 101c,1965614_east,,
Strausberg Nord,s-bahn,KBS 101c,1965615_east,,
Friedrichstr.,s-bahn,KBS 102,1965616_east,,
Marx-Engels-Platz,s-bahn,KBS 102,1965617_east,,
Alexanderplatz,s-bahn,KBS 102,1965618_east,,
Jannowitzbrücke,s-bahn,KBS 102,1965619_east,,
Ostbahnhof,s-bahn,KBS 102,1965620_east,,
Warschauer Str.,s-bahn,KBS 102,1965621_east,,
Ostkreuz,s-bahn,KBS 102,1965622_east,,
Rummelsburg,s-bahn,KBS 102,1965623_east,,
Betriebsbahnhof Rummelsburg,s-bahn,KBS 102,1965624_east,,
Karlshorst,s-bahn,KBS 102,1965625_east,,
Wuhlheide,s-bahn,KBS 102,1965626_east,,
Köpenick,s-bahn,KBS 102,1965627_east,,
Hirschgarten,s-bahn,KBS 102,1965628_east,,
Friedrichshagen,s-bahn,KBS 102,1965629_east,,
Rahnsdorf,s-bahn,KBS 102,1965630_east,,
Wilhelmshagen,s-bahn,KBS 102,1965631_east,,
Erkner,s-bahn,KBS 102,1965632_east,,
Friedrichstr.,s-bahn,KBS 103,1965633_east,,
Marx-Engels-Platz,s-bahn,KBS 103,1965634_east,,
Alexanderplatz,s-bahn,KBS 103,1965635_east,,
Jannowitzbrücke,s-bahn,KBS 103,1965636_east,,
Ostbahnhof,s-bahn,KBS 103,1965637_east,,
Warschauer Str.,s-bahn,KBS 103,1965638_east,,
Treptower Park,s-bahn,KBS 103,1965639_east,,
Plänterwald,s-bahn,KBS 103,1965640_east,,
Baumschulenweg,s-bahn,KBS 103,1965641_east,,
Schöneweide,s-bahn,KBS 103,1965642_east,,
Betriebsbahnhof Schöneweide,s-bahn,KBS 103,1965643_east,,
Adlershof,s-bahn,KBS 103,1965644_east,,
Grünau,s-bahn,KBS 103,1965645_east,,
Eichwalde,s-bahn,KBS 103,1965646_east,,
Zeuthen,s-bahn,KBS 103,1965647_east,,
Wildau,s-bahn,KBS 103,1965648_east,,
Königs Wusterhausen,s-bahn,KBS 103,1965649_east,,
Friedrichstr.,s-bahn,KBS 103a,1965650_east,,
Marx-Engels-Platz,s-bahn,KBS 103a,1965651_east,,
Alexanderplatz,s-bahn,KBS 103a,1965652_east,,
Jannowitzbrücke,s-bahn,KBS 103a,1965653_east,,
Ostbahnhof,s-bahn,KBS 103a,1965654_east,,
Warschauer Str.,s-bahn,KBS 103a,1965655_east,,
Treptower Park,s-bahn,KBS 103a,1965656_east,,
Plänterwald,s-bahn,KBS 103a,1965657_east,,
Baumschulenweg,s-bahn,KBS 103a,1965658_east,,
Schöneweide,s-bahn,KBS 103a,1965659_east,,
Betriebsbahnhof Schöneweide,s-bahn,KBS 103a,1965660_east,,
Adlershof,s-bahn,KBS 103a,1965661_east,,
Altglienicke,s-bahn,KBS 103a,1965662_east,,
Grünbergallee,s-bahn,KBS 103a,1965663_east,,
Zentralflughafen Berlin-Schönefeld,s-bahn,KBS 103a,1965664_east,,
Oranienburg,s-bahn,KBS 104,1965665_east,,
Lehnitz,s-bahn,KBS 104,1965666_east,,
Borgsdorf,s-bahn,KBS 104,1965667_east,,
Birkenwerder,s-bahn,KBS 104,1965668_east,,
Hohen Neuendorf (b Bln),s-bahn,KBS 104,1965669_east,,
Bergfelde (b Bln),s-bahn,KBS 104,1965670_east,,
Schönfließ,s-bahn,KBS 104,1965671_east,,
Blankenburg,s-bahn,KBS 104,1965672_east,,
Pankow-Heinersdorf,s-bahn,KBS 104,1965673_east,,
Pankow,s-bahn,KBS 104,1965674_east,,
Schönhauser Allee,s-bahn,KBS 104,1965675_east,,
Prenzlauer Allee,s-bahn,KBS 104,1965676_east,,
Greifswalder Str.,s-bahn,KBS 104,1965677_east,,
Leninallee,s-bahn,KBS 104,1965678_east,,
Zentralviehhof,s-bahn,KBS 104,1965679_east,,
Frankfurter Allee,s-bahn,KBS 104,1965680_east,,
Warschauer Str.,s-bahn,KBS 104,1965681_east,,
Ostbahnhof,s-bahn,KBS 104,1965682_east,,
Hennigsdorf (b Bln),s-bahn,KBS 104d,1965683_east,,
Hennigsdorf Nord,s-bahn,KBS 104d,1965684_east,,
Hohenschöpping,s-bahn,KBS 104d,1965685_east,,
Velten (Mark),s-bahn,KBS 104d,1965686_east,,
Blankenburg,s-bahn,KBS 105,1965687_east,,
Pankow-Heinersdorf,s-bahn,KBS 105,1965688_east,,
Pankow,s-bahn,KBS 105,1965689_east,,
Schönhauser Allee,s-bahn,KBS 105,1965690_east,,
Prenzlauer Allee,s-bahn,KBS 105,1965691_east,,
Greifswalder Str.,s-bahn,KBS 105,1965692_east,,
Leninallee,s-bahn,KBS 105,1965693_east,,
Zentralviehhof,s-bahn,KBS 105,1965694_east,,
Frankfurter Allee,s-bahn,KBS 105,1965695_east,,
Ostkreuz,s-bahn,KBS 105,1965696_east,,
Treptower Park,s-bahn,KBS 105,1965697_east,,
Plänterwald,s-bahn,KBS 105,1965698_east,,
Baumschulenweg,s-bahn,KBS 105,1965699_east,,
Schöneweide,s-bahn,KBS 105,1965700_east,,
Betriebsbahnhof Schöneweide,s-bahn,KBS 105,1965701_east,,
Adlershof,s-bahn,KBS 105,1965702_east,,
Grünau,s-bahn,KBS 105,1965703_east,,
Eichwalde,s-bahn,KBS 105,1965704_east,,
Zeuthen,s-bahn,KBS 105,1965705_east,,
Bernau (b Bln),s-bahn,KBS 106,1965706_east,,
Zepernick (b Bernau),s-bahn,KBS 106,1965707_east,,
Röntgental,s-bahn,KBS 106,1965708_east,,
Buch,s-bahn,KBS 106,1965709_east,,
Karow,s-bahn,KBS 106,1965710_east,,
Blankenburg,s-bahn,KBS 106,1965711_east,,
Pankow-Heinersdorf,s-bahn,KBS 106,1965712_east,,
Pankow,s-bahn,KBS 106,1965713_east,,
Schönhauser Allee,s-bahn,KBS 106,1965714_east,,
Prenzlauer Allee,s-bahn,KBS 106,1965715_east,,
Greifswalder Str.,s-bahn,KBS 106,1965716_east,,
Leninallee,s-bahn,KBS 106,1965717_east,,
Zentralviehhof,s-bahn,KBS 106,1965718_east,,
Frankfurter Allee,s-bahn,KBS 106,1965719_east,,
Ostkreuz,s-bahn,KBS 106,1965720_east,,
Treptower Park,s-bahn,KBS 106,1965721_east,,
Plänterwald,s-bahn,KBS 106,1965722_east,,
Baumschulenweg,s-bahn,KBS 106,1965723_east,,
Schöneweide,s-bahn,KBS 106,1965724_east,,
Oberspree,s-bahn,KBS 106,1965725_east,,
Spindlersfeld,s-bahn,KBS 106,1965726_east,,
Schönhauser Allee,s-bahn,KBS 106a,1965727_east,,
Prenzlauer Allee,s-bahn,KBS 106a,1965728_east,,
Greifswalder Str.,s-bahn,KBS 106a,1965729_east,,
Leninallee,s-bahn,KBS 106a,1965730_east,,
Zentralviehhof,s-bahn,KBS 106a,1965731_east,,
Frankfurter Allee,s-bahn,KBS 106a,1965732_east,,
Ostkreuz,s-bahn,KBS 106a,1965733_east,,
Treptower Park,s-bahn,KBS 106a,1965734_east,,
Plänterwald,s-bahn,KBS 106a,1965735_east,,
Baumschulenweg,s-bahn,KBS 106a,1965736_east,,
Schöneweide,s-bahn,KBS 106a,1965737_east,,
Betriebsbahnhof Schöneweide,s-bahn,KBS 106a,1965738_east,,
Adlershof,s-bahn,KBS 106a,1965739_east,,
Altglienicke,s-bahn,KBS 106a,1965740_east,,
Grünbergallee,s-bahn,KBS 106a,1965741_east,,
Zentralflughafen Berlin-Schönefeld,s-bahn,KBS 106a,1965742_east,,
