stop_name,type,line_name,stop_id,location,identifier
"Marienfelde, Daimlerstrasse",tram,15,19650,"52.42393712,13.38022295",
Großbeerenstrasse Ecke Daimlerstrasse,tram,15,19651,"52.42636276,13.37438168",
Körtingstrasse Ecke Großbeerenstrasse,tram,15,19652,"52.43481353,13.37831564",
Mariendorferdamm Ecke Alt-Mariendorf,tram,15,19653,"52.44016815,13.38730997",
Imbrosweg Ecke Rixdorferstrasse,tram,15,19654,"52.44352627,13.39862544",
Mariendamm Friedhof,tram,15,19655,"52.44953069,13.40475593",
Industriestrasse Ecke Gottlieb-Dunkel-Strasse,tram,15,19656,"52.45533607,13.40989571",
Germaniastrasse Ecke Gottlieb-Dunkel-Strasse,tram,15,19657,"52.46053987,13.41805889",
"Frauenklinik, Mariendorferweg",tram,15,19658,"52.46394991,13.42750955",
Hermannstrasse/Britzer Damm,tram,15,19659,"52.46276073,13.43439092",
U-Bhf. Neukölln,tram,15,196510,"52.46965568,13.44161494",
Richardstrasse Ecke Braunschweigerstrasse,tram,15,196511,"52.47098038,13.44634551",
Saalestrasse Ecke Sonnenallee,tram,15,196512,"52.47384843,13.45589857",
Dammweg Ecke Sonnenallee,tram,15,196513,"52.47028918,13.46461967",
Schulenburgpark,tram,15,196514,"52.46666061,13.47029259",
Gradestrasse Ecke Tempelhofer Weg,tram,47,196515,"52.45253932,13.43305683",
U-Bhf. Blaschkoallee,tram,47,196516,"52.45247429,13.44902591",
Buschkrugallee Ecke Blaschkoallee,tram,47,196517,"52.45253092,13.45217109",
Onkel-Herse-Strasse Ecke Buschkrugallee,tram,47,196518,"52.44824572,13.45392578",
Parchimerallee Ecke Buschkrugallee,tram,47,196519,"52.44543069,13.45497615",
Grünerweg Ecke Buschkrugallee,tram,47,196520,"52.44256249,13.45634565",
Krankenhaus Neukölln,tram,47,196521,"52.43977054,13.45935906",
Johannisthaler Chaussee Ecke Rudowerstrasse,tram,47,196522,"52.43431775,13.46904333",
Wildmeisterdamm Ecke Neuköllnerstrasse,tram,47,196523,"52.42577675,13.48323925",
Stubenrauchstrasse Ecke Neuköllnerstrasse,tram,47,196524,"52.42416862,13.48544348",
Köpenickerstrasse Ecke Neuköllnerstrasse,tram,47,196525,"52.41693184,13.49408867",
Groß-Ziethener-Chaussee Ecke Waltersdorferchaussee,tram,47,196526,"52.41611361,13.49741897",
"Rudow, Stadtgrenze",tram,47P,196527,"52.40149832,13.51359770",
Richard-Wagner-Platz,tram,53,196528,"52.51757062,13.30624812",
Luisenplatz,tram,53,196529,"52.52039497,13.29942701",
Klausenerplatz,tram,53,196530,"52.51920201,13.29186737",
Kirschenallee Ecke Spandauerdamm,tram,53,196531,"52.52038534,13.26714901",
Schloß Ruhwald,tram,53,196532,"52.52160458,13.26039687",
U-Bhf. Ruhleben,tram,53,196533,"52.52595777,13.24137187",
Teltowerstrasse Ecke Ruhlebenerstrasse,tram,53,196534,"52.52649488,13.21644671",
Freiheit,tram,53,196535,"52.53269779,13.20751844",
Spandauer Markt,tram,53,196536,"52.53687071,13.20531554",
Hafenplatz,tram,53,196537,"52.54229255,13.20620113",
Lynarstrasse Ecke Neuendorferstrasse,tram,53,196538,"52.54898037,13.21025253",
Hohenzollernring Ecke Streitstrasse,tram,53,196539,"52.55572554,13.20753076",
"Hakenfelde, Niederneuendorferallee",tram,53,196540,"52.57049943,13.21252012",
Lynarstrasse Ecke Schönwalderstrasse,tram,54,196541,"52.54844825,13.20081057",
"Spandau, Johannesstift",tram,54,196542,"52.56762417,13.19178261",
Bhf. Zoo,tram,55,196543,"52.50719346,13.33262988",
Ernst-Reuter-Platz,tram,55,196544,"52.51159182,13.32257153",
Otto-Suhr-Allee Ecke Leibnizstrasse,tram,55,196545,"52.51465062,13.31519191",
Osnabrückerstrasse Ecke Tegelerweg,tram,55,196546,"52.52651985,13.29732033",
Jakob-Kaiser-Platz,tram,55,196547,"52.53674528,13.29357089",
Quellweg Ecke Nonnendammallee,tram,55,196548,"52.53662795,13.26837045",
Paulsternstrasse Ecke Gartenfelderstrasse,tram,55,196549,"52.54412196,13.24701046",
Zitadellenweg Ecke Am Juliusturm,tram,55,196550,"52.53777974,13.21728515",
Carl-Schurz-Strasse Ecke Am Juliusturm,tram,55,196551,"52.53954502,13.20555083",
Hohenzollernring Ecke Neuendorferstrasse,tram,55,196552,"52.55571250,13.20754149",
Hakenfelde,tram,55,196553,"52.57886010,13.21005780",
"Zoo, Kantstrasse",tram,75,196554,"52.50528855,13.33160349",
Leibnizstrasse Ecke Kantstrasse,tram,75,196555,"52.50628812,13.31395372",
Wilmersdorferstrasse Ecke Kantstrasse,tram,75,196556,"52.50669450,13.30667544",
Amtsgericht,tram,75,196557,"52.50682618,13.29739145",
Messedamm,tram,75,196558,"52.50641939,13.28039244",
Theodor-Heuss-Platz,tram,75,196559,"52.50948066,13.27259770",
Preußenallee Ecke Heerstrasse,tram,75,196560,"52.50859211,13.25931279",
Reichssportfeldstrasse Ecke Heerstrasse,tram,75,196561,"52.50751473,13.24208670",
Stößenseebrücke,tram,75,196562,"52.50889437,13.21747597",
Pichelsdorferstrasse Ecke Heerstrasse,tram,75,196563,"52.51311471,13.19691856",
Seeburgerstrasse Ecke Klosterstrasse,tram,75,196564,"52.52914199,13.19558478",
Rathaus Spandau,tram,75,196565,"52.53488082,13.19905885",
"Spandau, Markt",tram,75,196566,"52.53784350,13.20413543",
Hohenzollernring Ecke Schönwalderstrasse,tram,76,196567,"52.55536761,13.19859324",
Johannesstift,tram,76,196568,"52.56762417,13.19178261",
Lindenstrasse Ecke Kochstrasse,tram,96,196569,"52.50708787,13.39827979",
Mehringplatz,tram,96,196570,"52.49792491,13.39108107",
Yorckstrasse Ecke Mehringdamm,tram,96,196571,"52.49288890,13.38767014",
U-Bhf. Flughafen,tram,96,196572,"52.48477998,13.38596223",
Adolf-Scheidt-Platz,tram,96,196573,"52.47819486,13.37836902",
Berlinickeplatz,tram,96,196574,"52.46632968,13.37814469",
Attilaplatz,tram,96,196575,"52.45549834,13.37561964",
Ringstrasse Ecke Attilastrasse,tram,96,196576,"52.44731185,13.36209225",
"Lankwitz, Kirche",tram,96,196577,"52.43629411,13.34577794",
Seydlitzstrasse Ecke Kaiser-Wilhelm-Strasse,tram,96,196578,"52.43194429,13.33814378",
Kranoldplatz,tram,96,196579,"52.42782085,13.32657579",
Ostpreußendamm Ecke Morgensternstrasse,tram,96,196580,"52.42589579,13.31710731",
Giesensdorferstrasse Ecke Ostpreußendamm,tram,96,196581,"52.42400572,13.31441951",
"Lichterfelde, Goerzallee",tram,96,196582,"52.41785382,13.28703404",
Waldstrasse Ecke Turmstrasse,autobus,A1,196583,"52.52720084,13.33052493",
Gotzkowskybrücke,autobus,A1,196584,"52.52381238,13.32972912",
Dovebrücke,autobus,A1,196585,"52.51943492,13.31929294",
Otto-Suhr-Allee Ecke Cauerstrasse,autobus,A1,196586,"52.51467908,13.31513688",
Kurfürstendamm Ecke Leibnizstrasse,autobus,A1,196587,"52.50064083,13.31300996",
U-Bhf. Fehrbelliner Platz,autobus,A1,196588,"52.49039093,13.31417746",
Berlinerstrasse Ecke Brandenburgischestrasse,autobus,A1,196589,"52.48649124,13.32038510",
Hildegardstrasse Ecke Blissestrasse,autobus,A1,196590,"52.48181400,13.32032961",
Detmolderstrasse Ecke Blissestrasse,autobus,A1,196591,"52.47879433,13.32028118",
Breitenbachplatz,autobus,A1,196592,"52.46721972,13.30947349",
Botanischer Garten,autobus,A1,196593,"52.45859880,13.30343606",
Pacelliallee/Thielallee,autobus,A1,196594,"52.45822390,13.28702576",
Clayallee Ecke Königin-Luise-Strasse,autobus,A1,196595,"52.46044681,13.27489827",
U-Bhf. Oskar-Helene-Heim,autobus,A1,196596,"52.45027901,13.27036199",
Potsdamerstrasse Ecke Clayallee,autobus,A1,196597,"52.43505475,13.26040016",
Rathaus Zehlendorf,autobus,A1,196598,"52.43320752,13.25953192",
Machnowerstrasse Ecke Teltowerdamm,autobus,A1,196599,"52.43081519,13.25928297",
Beeskowdamm Ecke Teltowerstrasse,autobus,A1,1965100,"52.40897892,13.26734680",
Wismarerstrasse Ecke Goerzallee,autobus,A1,1965101,"52.42196127,13.29845504",
Lindenstrasse Ecke Ostpreußendamm,autobus,A1,1965102,"52.41788577,13.30524076",
"Bhf. Zoo, Hardenbergplatz",autobus,A2,1965103,"52.50696177,13.33308096",
Spichernstrasse Ecke Bundesallee,autobus,A2,1965104,"52.49595111,13.33077976",
Berlinerstrasse Ecke Bundesallee,autobus,A2,1965105,"52.48732427,13.33091399",
Bundesplatz,autobus,A2,1965106,"52.47867899,13.32860278",
Friedrich-Wilhelm-Platz,autobus,A2,1965107,"52.47128806,13.32836213",
Schloßstrasse Ecke Bundesallee,autobus,A2,1965108,"52.46494077,13.32851361",
Feuerbachstrasse Ecke Bismarckstrasse,autobus,A2,1965109,"52.46451344,13.33892787",
Bergstrasse Ecke Bismarckstrasse,autobus,A2,1965110,"52.45863817,13.33931462",nan+ nan
Steglitzerdamm Ecke Halskestrasse,autobus,A2,1965111,"52.45002165,13.34670705",
Leonorenstrasse Ecke Siemensstrasse,autobus,A2,1965112,"52.44438058,13.33887527",
"Lankwitz, Kirche",autobus,A2,1965113,"52.43629187,13.34574539",
Havensteinstrasse Ecke Gallwitzallee,autobus,A2,1965114,"52.43194849,13.34634331",
Lerbacher Weg,autobus,A2,1965115,"52.42568639,13.34759454",
Trippsteinstrase Ecke Frankenhauserstrasse,autobus,A2,1965116,"52.41708279,13.34765431",
Winfriedstrasse Ecke Clayallee,autobus,A3,1965117,"52.43922363,13.26287811",
Sundgauerstrasse Ecke Clayallee,autobus,A3,1965118,"52.44557392,13.26767122",
U-Bhf. Onkel-Toms-Hütte,autobus,A3,1965119,"52.45007713,13.25127259",
U-Bhf. Krumme Lanke,autobus,A3,1965120,"52.44361298,13.24100643",
Lindenthalerallee Ecke Argentischestrasse,autobus,A3,1965121,"52.43767236,13.23234537",
Spanischeallee Ecke Potsdamerschaussee,autobus,A3,1965122,"52.42962237,13.22400734",
Schopenhauerstrasse Ecke Spanischeallee,autobus,A3,1965123,"52.43394923,13.21204795",
Borussenstrasse Ecke Spanischeallee,autobus,A3,1965124,"52.43382331,13.19324567",
Am Beelitzhof Ecke Kronprinzessinnenweg,autobus,A3,1965125,"52.43221622,13.18668380",
Bhf. Wannsee,autobus,A3,1965126,"52.42151302,13.17810257",
Am Großen Wannssee Ecke Königstrasse,autobus,A3,1965127,"52.42050256,13.16717980",
Pfaueninselchaussee Ecke Königstrasse,autobus,A3,1965128,"52.41883990,13.15300828",
Rathaus Wannsee,autobus,A3,1965129,"52.41844013,13.14887249",
"Stölpchensee, Wilhelmplatz",autobus,A3,1965130,"52.41240583,13.14164452",
"Neu-Westend, Brixplatz",autobus,A4,1965131,"52.51950863,13.25638651",
Theodor-Heuss-Platz,autobus,A4,1965132,"52.50937134,13.27256472",
Messedamm,autobus,A4,1965133,"52.50446815,13.27941210",
Henriettenplatz,autobus,A4,1965134,"52.49701780,13.29033951",
Hochmeisterplatz,autobus,A4,1965135,"52.49468638,13.30125468",
Berlinerstrasse Ecke Uhlandstrasse,autobus,A4,1965136,"52.48647343,13.32250152",
Bundesallee Ecke Badenschestrasse,autobus,A4,1965137,"52.48612222,13.33105202",
Rathaus Schöneberg,autobus,A4,1965138,"52.48515474,13.34508660",
Innsbrucker Platz,autobus,A4,1965139,"52.47854551,13.34405869",
Hauptstrasse Ecke Dominicusstrasse,autobus,A4,1965140,"52.48178378,13.34841821",",+nan"
Kaiser-Wilhelm-Platz,autobus,A4,1965141,"52.48632925,13.35655627",
Dudenstrasse Ecke Katzbachstrasse,autobus,A4,1965142,"52.48503402,13.37659343",
U-Bhf. Flughafen,autobus,A4,1965143,"52.48488596,13.38599655",
Columbiadamm Ecke Friesenstrasse,autobus,A4,1965144,"52.48396787,13.39436897",
Flughafenstrasse Ecke Hermannstrasse,autobus,A4,1965145,"52.48071391,13.42508430",
Kienitzerstrasse Ecke Karl-Marx-Strasse,autobus,A4,1965146,"52.47761763,13.43849396",
Sonnenallee Ecke Erkstrasse,autobus,A4,1965147,"52.48167462,13.44010366",
Harzerstrasse Ecke Elsenstrasse,autobus,A4,1965148,"52.48508524,13.44890845",
Machandelweg,autobus,A5,1965149,"52.52483520,13.24567178",
U-Bhf. Ruhleben,autobus,A5,1965150,"52.52596833,13.24147858",
Teltowerstrasse Ecke Ruhlebenerstrasse,autobus,A5,1965151,"52.52649488,13.21644671",
Stresowplatz,autobus,A5,1965152,"52.53362878,13.20678183",
Breite Straße Ecke Charlottenstraße,autobus,A5,1965153,"52.53614601,13.20442667",
Rathaus Spandau,autobus,A5,1965154,"52.53457836,13.19949094",
Zeppelinstrasse Ecke Seegefelderstrasse,autobus,A5,1965155,"52.53843134,13.18241060",
Falkenseerchaussee Ecke Zeppelinstrasse,autobus,A5,1965156,"52.54753513,13.18466337",
Waldkrankenhaus,autobus,A5,1965157,"52.56214543,13.15834009",
"Spandau, Landesnervenklinik",autobus,A5,1965158,"52.56341330,13.15430729",
S-Bhf. Wannsee,autobus,A6,1965159,"52.42146076,13.17811897",
Königstrasse Ecke Kronprinzessinnenweg,autobus,A6,1965160,"52.41993325,13.17531239",
Pfaueninselschaussee Ecke Königstrasse,autobus,A6,1965161,"52.41884731,13.15300813",
Friedenstrasse Ecke Königstrasse,autobus,A6,1965162,"52.41722225,13.13897505",
Schäferberg,autobus,A6,1965163,"52.41562662,13.12630868",
Nikolskoerweg Ecke Königstrasse,autobus,A6,1965164,"52.41402767,13.10923663",
Glienicker Brücke,autobus,A6,1965165,"52.41347409,13.09123588",
"Haselhorst, Kirche",autobus,A10,1965166,"52.54682818,13.23706589",
Paulsternstrasse Ecke Nonnendamm,autobus,A10,1965167,"52.53816278,13.24773062",
Verwaltungs-Gebaüde,autobus,A10,1965168,"52.53706333,13.26228517",
Spandauerdamm Ecke Fürstenbrunnerweg,autobus,A10,1965169,"52.51839041,13.28021290",
U-Bhf. Kaiserdamm,autobus,A10,1965170,"52.50999451,13.28180313",
Masurenallee Ecke Messedamm,autobus,A10,1965171,"52.50646272,13.28040040",
Amtsgericht,autobus,A10,1965172,"52.50682618,13.29739145",
Kurfürstendamm Ecke Joachim-Friedrichstrasse,autobus,A10,1965173,"52.49800512,13.29619975",
Rathenauplatz,autobus,A10,1965174,"52.49561135,13.28657375",
Elsterplatz,autobus,A10,1965175,"52.47977983,13.28550761",
Hundekehlestrasse Ecke Warnemünderstrasse,autobus,A10,1965176,"52.47539508,13.29037561",
Königin-Luise-Strasse Ecke Pacelliallee,autobus,A10,1965177,"52.45831131,13.28712680",
U-Bhf. Thielplatz,autobus,A10,1965178,"52.45104521,13.28173642",
Berlinerstrasse Ecke Thielallee,autobus,A10,1965179,"52.44181287,13.28274544",
Berlinerstrasse Ecke Sundgauerstrasse,autobus,A10,1965180,"52.43833478,13.27141130",
Teltowerdamm Ecke Clayallee,autobus,A10,1965181,"52.43506014,13.26041541",
Teltowerdamm Ecke Machnowerstrasse,autobus,A10,1965182,"52.43081551,13.25929641",
Behring-Krankenhaus,autobus,A10,1965183,"52.42410895,13.25176454",
Lupsteinerweg Ecke Sachtlebenstrasse,autobus,A10,1965184,"52.40951067,13.25160884",
Saargemünderstrasse Ecke Clayallee,autobus,A11,1965185,"52.45093246,13.27071876",
Ihnestrasse Ecke Garystrasse,autobus,A11,1965186,"52.44831170,13.27633996",
Corrensplatz,autobus,A11,1965187,"52.44601401,13.28426468",
Unter den Eichen Ecke Habelschwendterallee,autobus,A11,1965188,"52.44574706,13.29356835",
Gardeschützerweg Ecke Drakestrasse,autobus,A11,1965189,"52.44267225,13.29700971",
Ringstrasse Ecke Drakestrasse,autobus,A11,1965190,"52.43979507,13.30016971",
Wiesenbaude,autobus,A11,1965191,"52.43049524,13.31180861",
Ostrpreußendamm Ecke Königsbergerstrasse,autobus,A11,1965192,"52.43078834,13.31750145",
Marienstrasse Ecke Königsbergerstrasse,autobus,A11,1965193,"52.42946322,13.32166308",
Morgensternstrasse Ecke Königsbergerstrasse,autobus,A11,1965194,"52.42807231,13.32551407",
Kranoldplatz,autobus,A11,1965195,"52.42777476,13.32647358",
Langestrasse Ecke Lorenzstrasse,autobus,A11,1965196,"52.42401446,13.33313155",
Hildburghauserstrasse Ecke Mariannenstrasse,autobus,A11,1965197,"52.41661432,13.33818246",
Stadtilmerweg,autobus,A11,1965198,"52.41507278,13.34597485",
"Marienelde, Alt-Marienfelde",autobus,A11,1965199,"52.41210781,13.36273360",
Gartenstrasse Ecke Bernauerstrasse,autobus,A12,1965200,"52.53343698,13.38751889",
Grenzstrasse Ecke Ackerstrasse,autobus,A12,1965201,"52.54070452,13.37926714",
U-Bhf. Leopold-Platz,autobus,A12,1965202,"52.54640033,13.35909680",
U-Bhf. Seestrasse,autobus,A12,1965203,"52.55031541,13.35229850",
Bristolstrasse Ecke Barfusstrasse,autobus,A12,1965204,"52.55830889,13.35117448",
Emmentalerstrasse Ecke Aroserallee,autobus,A12,1965205,"52.56751553,13.35120118",
Lindauerallee Ecke Roedernallee,autobus,A12,1965206,"52.57437590,13.34773196",
Tessenowstrasse Ecke Roedernallee,autobus,A12,1965207,"52.58314996,13.34369472",
Rathaus Reinickendorf,autobus,A12,1965208,"52.59165784,13.32633528",
Cyclopstrasse Ecke Hermsdorferstrasse,autobus,A12,1965209,"52.60209837,13.32482303",
Zabel-Krüger-Damm Ecke Oraniendamm,autobus,A12,1965210,"52.60785215,13.32378976",
Almutstrasse Ecke Berlinerstrasse,autobus,A12,1965211,"52.61486970,13.31706314",
Hermsdorferdamm Ecke Berlinerstrasse,autobus,A12,1965212,"52.62241093,13.31288776",
Zeitingerplatz,autobus,A12,1965213,"52.63352257,13.29039813",
Donnersmarkplatz,autobus,A12,1965214,"52.63014387,13.28046436",
Hainbuchenstrasse Ecke Stolzingstrasse,autobus,A12,1965215,"52.63436579,13.27495612",
"Heiligensee, Alt-Heiligensee",autobus,A13,1965216,"52.60174637,13.21022269",
Am Dachsbau Ecke Heiligenseestrasse,autobus,A13,1965217,"52.60656467,13.22982450",
Gabelung,autobus,A13,1965218,"52.59988613,13.25204129",
Ruppinerchaussee Ecke Heiligenseestrasse,autobus,A13,1965219,"52.59792775,13.27502724",
U-Bhf. Tegel,autobus,A13,1965220,"52.58950313,13.28363072",
Bernauerstrasse Ecke Berlinerstrasse,autobus,A13,1965221,"52.57632475,13.29471004",
Krankenhaus Tegel-Süd,autobus,A13,1965222,"52.57573398,13.27874933",
Strasse nach Saatwinkel Ecke Bernauerstrasse,autobus,A13,1965223,"52.56775987,13.25791205",
Paulsternstrasse Ecke Gartenfelderstrasse,autobus,A13,1965224,"52.54412196,13.24701046",
Daumstrasse Ecke Am Juliusturm,autobus,A13,1965225,"52.53927882,13.23206301",
Carl-Schurzstrasse Ecke Am Juliusturm,autobus,A13,1965226,"52.53954249,13.20559420",
Seeburgerstrasse Ecke Klosterstrasse,autobus,A13,1965227,"52.52914199,13.19558478",
Päwesinerweg Ecke Seeburgerstrasse,autobus,A13,1965228,"52.52631959,13.18186001",
Heerstrasse Ecke Wilhelmstrasse,autobus,A13,1965229,"52.51662458,13.17902230",
Weinmeisterhornweg Ecke Wilhelmstrasse,autobus,A13,1965230,"52.51102790,13.17160161",
Mattenbuder Pfad Ecke Henningsdorferstrasse,autobus,A14,1965231,"52.61696711,13.22053385",
Ruppinerchaussee Ecke Henningsdorferstrasse,autobus,A14,1965232,"52.62646800,13.22755031",
Schulzendorferstrasse Ecke Ruppinerchaussee,autobus,A14,1965233,"52.61441645,13.24489068",
Heiligenseestrasse Ecke Karolinenstrasse,autobus,A14,1965234,"52.59793113,13.27502610",
Ziekowstrasse Ecke Gorkistrasse,autobus,A14,1965235,"52.59058636,13.29210637",
"Alt-Wittenau, Rathaus Reinickendorf",autobus,A14,1965236,"52.59196651,13.32644524",
Aroserallee Ecke Lindauerallee,autobus,A14,1965237,"52.57378753,13.35197104",
Kopenhagenerstrasse Ecke Klemkestrasse,autobus,A14,1965238,"52.57426441,13.35917869",
Klemkestrasse Ecke Sommerstrasse,autobus,A14,1965239,"52.57477832,13.37353041",
Pankowerallee Ecke Provinzstrasse,autobus,A14,1965240,"52.56468480,13.37806280",
Osloerstrasse Ecke Drontheimerstrasse,autobus,A14,1965241,"52.55645127,13.37705419",
Pankstrasse Ecke Badstrasse,autobus,A14,1965242,"52.55227404,13.38138720",
U-Bhf. Gesundbrunnen,autobus,A14,1965243,"52.54947942,13.38652401",
Rügenerstrasse Ecke Brunnenstrasse,autobus,A14,1965244,"52.54472500,13.39102468",
Lübarserstrasse Ecke Eichorsterweg,autobus,A15,1965245,"52.60279735,13.33575475",
Cyclopstrasse Ecke Oranienburgerstrasse,autobus,A15,1965246,"52.59750985,13.33255807",
Alt-Wittenau Ecke Oranienburgerstrasse,autobus,A15,1965247,"52.58969313,13.33418093",
Breitenbachstrasse Ecke Eichborndamm,autobus,A15,1965248,"52.57783790,13.31483743",
Holzhauserstrasse Ecke Breitenbachstrasse,autobus,A15,1965249,"52.58199553,13.30545455",
Borsigwalderweg Ecke Ecke Conradstrasse,autobus,A15,1965250,"52.58481078,13.29793830",
Gorkistrasse Ecke Ziekowstrasse,autobus,A15,1965251,"52.59056318,13.29198781",
Hermsdorferdamm Ecke Karolinenstrasse,autobus,A15,1965252,"52.59996370,13.28132933",
Schulzendorferstrasse Ecke Hermsdorferdamm,autobus,A15,1965253,"52.61058699,13.29550843",
Dominikus Krankenhaus,autobus,A15,1965254,"52.62619652,13.29449567",
Donnersmarckplatz,autobus,A15,1965255,"52.63015050,13.28045133",
Zeitlingerplatz,autobus,A15,1965256,"52.63352257,13.29039813",
Am Pilz,autobus,A15,1965257,"52.64251497,13.30090805",
Invalidensiedlung,autobus,A15,1965258,"52.65584642,13.29035793",
Osloerstrasse Ecke Koloniestrasse,autobus,A16,1965259,"52.55643380,13.37744264",
Luise-Schroeder-Platz,autobus,A16,1965260,"52.55703815,13.36628643",
Virchow-Krankenhaus,autobus,A16,1965261,"52.54371513,13.33931792",
Fennstrasse Ecke Tegelerstrasse,autobus,A16,1965262,"52.53794452,13.36161806",
Wilsnackerstrasse Ecke Perlebergerstrasse,autobus,A16,1965263,"52.53188508,13.34929041",
Hansaplatz,autobus,A16,1965264,"52.51793433,13.34203819",
Großer Stern,autobus,A16,1965265,"52.51452472,13.34993319",
Lützowplatz,autobus,A16,1965266,"52.50502902,13.35182287",
Nollendorfplatz,autobus,A16,1965267,"52.49968844,13.35308644",
Wiesbadenerstrasse Ecke Südwestkorso,autobus,A16,1965268,"52.47164317,13.31958712",
Englerallee,autobus,A16,1965269,"52.46361923,13.30489502",
"Grunewald, Fontanestrasse",autobus,A17,1965270,"52.48728923,13.26380017",
Hagenplatz,autobus,A17,1965271,"52.48338297,13.26581870",
Roseneck,autobus,A17,1965272,"52.47580090,13.28241127",
Warnemünderstrasse Ecke Breitestrasse,autobus,A17,1965273,"52.47539579,13.29037056",
U-Bhf. Rüdesheimerplatz,autobus,A17,1965274,"52.47292404,13.31439017",
Schloßstrasse Ecke Rheinstrasse,autobus,A17,1965275,"52.46496454,13.32848791",
Rathaus Steglitz,autobus,A17,1965276,"52.45563378,13.32105078",
Stadtpark,autobus,A17,1965277,"52.44890556,13.33882767",
Stadion Lichterfelde,autobus,A17,1965278,"52.43867923,13.32505044",
Königsbergerstrasse Ecke Ostpreußendamm,autobus,A17,1965279,"52.43078107,13.31748966",
Oberhoferplatz,autobus,A17,1965280,"52.42432102,13.32837352",
Saaleckplatz,autobus,A17,1965281,"52.41629158,13.32394196",
Sophie-Charlotte-Strasse Ecke Clayallee,autobus,A18,1965282,"52.44594168,13.26781841",
Scharfestrasse Ecke Clayallee,autobus,A18,1965283,"52.43826689,13.26228604",
Mittelstrasse Ecke Potsdamerstrasse,autobus,A18,1965284,"52.43473692,13.24926053",
Wolzogenstrasse Ecke Potsdamerchaussee,autobus,A18,1965285,"52.43228424,13.23570972",
Spanischeallee Ecke Potsdamerchaussee,autobus,A18,1965286,"52.42958745,13.22402595",
Waldfriedhof,autobus,A18,1965287,"52.42599573,13.20924605",
Quantzstrasse Ecke Potsdamerchaussee,autobus,A18,1965288,"52.42315874,13.20222949",
Kronprinzessinnenweg Ecke Königsstrasse,autobus,A18,1965289,"52.41992383,13.17532264",
Am Großen Wannsee Ecke Königsstrasse,autobus,A18,1965290,"52.42050256,13.16717980",
Pfaueninselchaussee Ecke Königsstrasse,autobus,A18,1965291,"52.41883032,13.15301989",
Stölpchensee,autobus,A18,1965292,"52.40943024,13.14381795",
Machnowerstrasse Ecke Königsweg,autobus,A18,1965293,"52.39761381,13.14365940",
Erdenerstrasse Ecke Königsallee,autobus,A19,1965294,"52.49053761,13.27635675",
Wilmersdorferstrasse Ecke Kurfürstendamm,autobus,A19,1965295,"52.50011662,13.30701429",
Olivaerplatz,autobus,A19,1965296,"52.49997141,13.31297061",
Joachim-Friedrich-Strasse Ecke Kurfürstendamm,autobus,A19,1965297,"52.49797323,13.29620598",
Breitscheidplatz,autobus,A19,1965298,"52.50443806,13.33564616",
Wittenbergplatz,autobus,A19,1965299,"52.50188939,13.34269788",
Potsdamerstrasse Ecke Bülowstrasse,autobus,A19,1965300,"52.49781684,13.36203432",
Bautzenerstrasse Ecke Yorckstrasse,autobus,A19,1965301,"52.49266114,13.37093569",
Katzbachstrasse Ecke Yorckstrasse,autobus,A19,1965302,"52.49156095,13.37674534",
Mehringdamm,autobus,A19,1965303,"52.49293918,13.38772030",
Flughafen Tempelhof,autobus,A19,1965304,"52.48430845,13.38587202",
"Tegelort, Almazeile",autobus,A20,1965305,"52.57056042,13.23019256",
Gerlindeweg Ecke Friederikestrasse,autobus,A20,1965306,"52.57564386,13.22896485",
Falkenplatz,autobus,A20,1965307,"52.58490938,13.22761993",
Freiheitsweg,autobus,A20,1965308,"52.58923448,13.24114056",
Karolinenstrasse Ecke Hermsdorferdamm,autobus,A20,1965309,"52.59678679,13.27666137",
Hatzfeldtallee Ecke Buddestrasse,autobus,A20,1965310,"52.59193118,13.28613645",
Martin-Luther-Friedhaus,autobus,A20,1965311,"52.59837048,13.29834314",
Freie Scholle,autobus,A20,1965312,"52.59985154,13.30173616",
Waldhornstrasse Ecke Waidmannslusterdamm,autobus,A20,1965313,"52.60286060,13.30810524",
Cyclopstrasse Ecke Waidmannslusterdamm,autobus,A20,1965314,"52.60700630,13.31976899",
Oraniendamm Ecke Waidmannslusterdamm,autobus,A20,1965315,"52.60785131,13.32378768",
Am Vierrutenberg Ecke Zabel-Krüger-Damm,autobus,A20,1965316,"52.61351518,13.34383031",
Lübars Dorfaue,autobus,A20,1965317,"52.62036688,13.35560142",
Wilhelmsruher Damm/Wentowsteig,autobus,A21,1965318,"52.59669616,13.35675334",
Oranienburgerstrasse Ecke Wilhelmsruherdamm,autobus,A21,1965319,"52.59547232,13.33299542",
Alt-Wittenau Ecke Eichborndamm,autobus,A21,1965320,"52.59187978,13.32645958",
Scharnweberstrasse Ecke Eichborndamm,autobus,A21,1965321,"52.56791784,13.31192345",
Kurt-Schumacher-Platz,autobus,A21,1965322,"52.56343825,13.32713029",
Kaserne Südtor,autobus,A21,1965323,"52.55685970,13.30843424",
Heckerdamm Ecke Kurt-Schumacherdamm,autobus,A21,1965324,"52.53961523,13.29537519",
Olbersstrasse Ecke Tegeler Weg,autobus,A21,1965325,"52.52931086,13.29629795",
Luisenplatz,autobus,A21,1965326,"52.52005409,13.29951339",
Kantstrasse,autobus,A21,1965327,"52.50678795,13.30232027",
Stuttgarter Platz,autobus,A21,1965328,"52.50551611,13.30292330",
Hohenzollerndamm Ecke Seesenerstrasse,autobus,A21,1965329,"52.48839537,13.30213634",
"Moabit, Wiebestrasse",autobus,A24,1965330,"52.53119513,13.31906377",
Gotzkowskystrasse Ecke Turmstrasse,autobus,A24,1965331,"52.52718286,13.33057117",
Stromstrasse Ecke Turmstrasse,autobus,A24,1965332,"52.52634184,13.34312496",
Rathenowerstrasse Ecke Turmstrasse,autobus,A24,1965333,"52.52676345,13.35531893",
Alt-Moabit Ecke Rathenowerstrasse,autobus,A24,1965334,"52.52365631,13.35697889",
John-Foster-Dulles Ecke Spreeweg,autobus,A24,1965335,"52.51708970,13.35460979",
Tiergartenstrasse Ecke Großer Stern,autobus,A24,1965336,"52.50959121,13.35134335",
Potsdamerstrasse Ecke Schöneberger Ufer,autobus,A24,1965337,"52.50581887,13.36824810",
Hafenplatz,autobus,A24,1965338,"52.50392084,13.37547988",
Askanischer Platz,autobus,A24,1965339,"52.50447897,13.38229547",
U-Bhf. Hallesches Tor,autobus,A24,1965340,"52.49791002,13.39130767",
Alexandrinenstrasse Ecke Neuenburgerstrasse,autobus,A24,1965341,"52.49946450,13.40038294",
Gneisenaustrasse Ecke Zossenerstrasse,autobus,A24,1965342,"52.49156620,13.39439538",
Unionplatz,autobus,A25,1965343,"52.53305940,13.33727881",
Gotzkowskystrasse,autobus,A25,1965344,"52.52718721,13.33055093",
Ernst-Reuter-Platz,autobus,A25,1965345,"52.51159182,13.32257153",
Bhf. Zoo,autobus,A25,1965346,"52.50702953,13.33322012",
Kurfürstendamm Ecke Joachimstalerstrasse,autobus,A25,1965347,"52.50382176,13.33132406",
Lietzenburgerstrasse Ecke Joachimstalerstrasse,autobus,A25,1965348,"52.50048518,13.33084620",
Pariserstrasse Ecke Bundesallee,autobus,A25,1965349,"52.49590004,13.33042968",
Kaisereiche,autobus,A25,1965350,"52.46896806,13.33261489",
Grazerplatz,autobus,A25,1965351,"52.46731774,13.34764981",
Attilaplatz,autobus,A25,1965352,"52.45590180,13.37651250",
Tempelhoferdamm Ecke Ordensmeisterstrasse,autobus,A25,1965353,"52.45579861,13.38396352",
Gottlieb-Dunkelstrasse Ecke Tempelhofer Weg,autobus,A25,1965354,"52.46050759,13.41797587",
Britzerdamm Ecke Tempelhoferweg,autobus,A25,1965355,"52.44889761,13.43620385",
U-Bhf. Parchimerallee,autobus,A25,1965356,"52.44570961,13.44989755",
Grünerweg Ecke Parchimerallee,autobus,A25,1965357,"52.44478076,13.45890602",
Loewenhardtdamm,autobus,A28,1965358,"52.48165790,13.37445329",
Kreuzbergstrasse Ecke Katzbachstrasse,autobus,A28,1965359,"52.48940625,13.37669525",
Yorckstrasse Ecke Großbeerenstrasse,autobus,A28,1965360,"52.49371348,13.38350221",
Mehringdamm Ecke Yorckstrasse,autobus,A28,1965361,"52.49291007,13.38769433",
Zossenerstrasse Ecke Gneisenaustrasse,autobus,A28,1965362,"52.49158552,13.39440500",
Südstern,autobus,A28,1965363,"52.48895865,13.40781380",
Urban-Krankenhaus,autobus,A28,1965364,"52.49346936,13.40624512",
U-Bhf. Prinzenstrasse,autobus,A28,1965365,"52.49844154,13.40664384",
U-Bhf. Kottbuser Tor,autobus,A28,1965366,"52.49909420,13.41826700",
Oranienstrasse Ecke Adalbertstrasse,autobus,A28,1965367,"52.50129319,13.41925515",
Mariannenplatz,autobus,A28,1965368,"52.50228674,13.42408623",
Köpenickerstrasse Ecke Manteufelstrasse,autobus,A28,1965369,"52.50575155,13.43197089",
U-Bhf. Schlesisches Tor,autobus,A28,1965370,"52.50108420,13.44197126",
Heckmannufer Ecke Schlesischestrasse,autobus,A28,1965371,"52.49753811,13.44837791",
Berkaerstrasse Ecke Teplitzerstrasse,autobus,A29,1965372,"52.48211530,13.28118174",
Franzensbaderstrasse Ecke Hubertusallee,autobus,A29,1965373,"52.48543154,13.28417080",
Bismarckplatz,autobus,A29,1965374,"52.49206454,13.28493897",
Joachim-Friedrichstrasse Ecke Kurfürstendamm,autobus,A29,1965375,"52.49797302,13.29623577",
Uhlandstrasse Ecke Kurfürstendamm,autobus,A29,1965376,"52.50253243,13.32528045",
Joachimstalerstrasse Ecke Kurfürstendamm,autobus,A29,1965377,"52.50383438,13.33138069",
Lützowstrasse Ecke Potsdamerstrasse,autobus,A29,1965378,"52.50309427,13.36566995",
Schönebergerstrasse Ecke Hallesches Ufer,autobus,A29,1965379,"52.50192110,13.37690647",
Askanischerplatz,autobus,A29,1965380,"52.50447538,13.38235997",
U-Bhf. Kochstrasse,autobus,A29,1965381,"52.50669824,13.39050322",
Lindenstrasse Ecke Oranienstrasse,autobus,A29,1965382,"52.50708473,13.39830086",
U-Bhf. Moritzplatz,autobus,A29,1965383,"52.50366900,13.41055755",
Oranienplatz,autobus,A29,1965384,"52.50232371,13.41551013",
Nauenerstrasse Ecke Brunsbüttlerdamm,autobus,A31,1965385,"52.53405375,13.18168918",
Magistratsweg Ecke Brunsbüttelerdamm,autobus,A31,1965386,"52.53310161,13.15797587",
Hackbuschstrasse Ecke Torweg,autobus,A31,1965387,"52.53959925,13.15022902",
Heidebergplan,autobus,A31,1965388,"52.54107413,13.14733873",
Gritznerstrasse Ecke Schildhornstrasse,autobus,A32,1965389,"52.46432401,13.31648845",
Schloßstrasse Ecke Schildhornstrasse,autobus,A32,1965390,"52.46148865,13.32515018",
"Rathaus Steglitz, Schloßstrasse",autobus,A32,1965391,"52.45638642,13.32015874",
Kuhligkshofstrasse Ecke Albrechtstrasse,autobus,A32,1965392,"52.45647464,13.32266025",
Sedanstrasse Ecke Albrechtstrasse,autobus,A32,1965393,"52.45143415,13.33535514",
Stindestrasse Ecke Albrechtstrasse,autobus,A32,1965394,"52.44812942,13.34011389",
Bhf. Lankwitz,autobus,A32,1965395,"52.43916666,13.34356778",
Malteserstrasse Ecke Paul-Schneider-Strasse,autobus,A32,1965396,"52.43332587,13.35301874",
Marchandstraasse Ecke Malteserstrasse,autobus,A32,1965397,"52.42301789,13.35749781",
Marienfelderallee Ecke Malteserstrasse,autobus,A32,1965398,"52.41372773,13.36191679",
Stegerwaldstrasse Ecke Marienfelderallee,autobus,A32,1965399,"52.42072124,13.36926660",
Bahnstrasse Ecke Marienfelderallee,autobus,A32,1965400,"52.42488059,13.37307043",
Berlinickestrasse Ecke Albrechtstrasse,autobus,A33,1965401,"52.45613384,13.32388935",
Handjeryplatz,autobus,A33,1965402,"52.45147899,13.33531014",
Heinrich-Seidelstrasse Ecke Steglitzerdamm,autobus,A33,1965403,"52.45020464,13.34509572",
S-Bhf. Südende,autobus,A33,1965404,"52.44902461,13.35443762",
Steglitzerdamm Ecke Attilastrasse,autobus,A33,1965405,"52.44676905,13.36072241",
Kaiser-/Ringstrasse,autobus,A33,1965406,"52.44448052,13.37222908",
Rathausstrasse Ecke Kaiserstrasse,autobus,A33,1965407,"52.44526215,13.37948232",
Kaiserstrasse Ecke Mariendorferdamm,autobus,A33,1965408,"52.44556286,13.38580057",
"Spandau, Friedhof",autobus,A34,1965409,"52.55313629,13.17967445",
Pionierstrasse Ecke Zeppelinstrasse,autobus,A34,1965410,"52.55150025,13.18552122",
Askanierring Ecke Falkenhagenerstrasse,autobus,A34,1965411,"52.54892650,13.19348270",
"Spandau, Hafenplatz",autobus,A34,1965412,"52.54215888,13.20604486",
Wilhelmstrasse Ecke Klosterstrasse,autobus,A34,1965413,"52.52916945,13.19565266",
Adamstrasse Ecke Pichelsdorferstrasse,autobus,A34,1965414,"52.52107038,13.19779651",
Heerstrasse Ecke Pichelsdorferstrasse,autobus,A34,1965415,"52.51306304,13.19689712",
Weinmeisterhornweg Ecke Gatowerstrasse,autobus,A34,1965416,"52.50926294,13.18033740",
Ortsgrenze Gatow,autobus,A34,1965417,"52.49816017,13.18001442",
"Gatow, Kirche",autobus,A34,1965418,"52.48684681,13.18215148",
Großglienickerweg Ecke Kladowerdamm,autobus,A34,1965419,"52.48313296,13.18267729",
Krankenhaus Hohengatow,autobus,A34,1965420,"52.47044988,13.16939160",
Krankenhaus Havelhöhe,autobus,A34,1965421,"52.46291933,13.15899083",
Alt-Kladow Ecke Kladowerdamm,autobus,A34,1965422,"52.45345793,13.14387535",
Schweizerhaus,autobus,A34,1965423,"52.46175022,13.13357880",
Gutshof,autobus,A34,1965424,"52.47510904,13.12071054",
Alt-Gatow,autobus,A34 E,1965425,"52.48331436,13.18269333",
Großglienickerweg,autobus,A34 E,1965426,"52.48155728,13.17437384",
Siedlung Habichtswald,autobus,A34 E,1965427,"52.47953016,13.14206961",
Krampnitzerweg Ecke Sakrower Landstrasse,autobus,A35,1965428,"52.45224947,13.13839944",
"Kladow, Hottengrund",autobus,A35,1965429,"52.44608218,13.12631025",
"Kladow, Dorfplatz",autobus,A35 E,1965430,"52.45233907,13.13858722",
Sarkower Landstrasse Ecke Kladowerdamm,autobus,A35 E,1965431,"52.45336191,13.14374514",
Krampnitzerweg Ecke Sarkower Landstrasse,autobus,A35 E,1965432,"52.45227850,13.13840632",
Pottensteinerweg Ecke Selbitzerstrasse,autobus,A35 E,1965433,"52.45051486,13.12165202",
Lanzendorferweg Ecke Pottensteinerweg,autobus,A35 E,1965434,"52.45047761,13.11861910",
Altenheim Hottengrund,autobus,A35 E,1965435,"52.44892367,13.11423775",
"Zehlendorf, Potsdamerstrasse Ecke Fischerhüttenstrasse",autobus,A48,1965436,"52.43574406,13.25604513",
Teltowerdamm Ecke Potsdamerstrasse,autobus,A48,1965437,"52.43506854,13.26043342",
Sundgauerstrasse Ecke Potsdamerstrasse,autobus,A48,1965438,"52.43835132,13.27139377",
Dahlemerweg Ecke Berlinerstrasse,autobus,A48,1965439,"52.44188094,13.28273380",
Drakestrasse Ecke Unter den Eichen,autobus,A48,1965440,"52.44573233,13.29369722",
Hindenburgdamm Ecke Schloßstrasse,autobus,A48,1965441,"52.45348338,13.31557093",
Bundesallee Ecke Schloßstrasse,autobus,A48,1965442,"52.46491935,13.32846219",
Innsbruckerplatz,autobus,A48,1965443,"52.47847894,13.34403026",
Pallasstrasse Ecke Potsdamerstrasse,autobus,A48,1965444,"52.49433810,13.36106238",
U-Bhf. Bülowstrasse,autobus,A48,1965445,"52.49787470,13.36212460",
Tiergartenstrasse/Philharmonie,autobus,A48,1965446,"52.51075589,13.36887626",
"Roseneck, Rheinbabenallee",autobus,A50,1965447,"52.47593478,13.28212574",
Forckenbeckstrasse Ecke Hohenzollerndamm,autobus,A50,1965448,"52.48221132,13.29002747",
Rudolstädterstrasse,autobus,A50,1965449,"52.48842112,13.30215328",
U-Bhf. Fehrbellinerplatz,autobus,A50,1965450,"52.49038178,13.31421227",
Uhlandstrasse Ecke Güntzelstrasse,autobus,A50,1965451,"52.49152711,13.32321130",
Pragerplatz,autobus,A50,1965452,"52.49295457,13.33315040",
Königstrasse Ecke Am Großen Wannsee,autobus,A51,1965453,"52.42049713,13.16716791",
Krankenhaus Heckeshorn,autobus,A51,1965454,"52.43498873,13.16171669",
"Marienfelde, Stadtrandsiedlung",autobus,A52,1965455,"52.40262128,13.35330799",
Alt-Marienfelde Ecke Merienfelderallee,autobus,A52,1965456,"52.41341610,13.36332925",
Kettingerstrasse Ecke Buckowerchaussee,autobus,A52,1965457,"52.41324337,13.39549820",
Lichtenraderdamm Ecke Buckowerchaussee,autobus,A52,1965458,"52.41453449,13.40113965",
Bühlerweg,autobus,A52,1965459,"52.41733641,13.41295295",
Buckower Friedhaus,autobus,A52,1965460,"52.42153161,13.43021506",
Buckowerdamm Ecke Alt-Buckow,autobus,A52,1965461,"52.42364174,13.43667664",
Grünerweg Ecke Johannisthalerchaussee,autobus,A52,1965462,"52.42961354,13.45376113",
Triftweg Ecke Johannisthalerchaussee,autobus,A52,1965463,"52.43169737,13.45951197",
Rudowerstrasse Ecke Johannisthalerchaussee,autobus,A52,1965464,"52.43433594,13.46904495",
Efeuweg Ecke Rudowerstrasse,autobus,A52,1965465,"52.42964562,13.47798792",
Wildmeisterdamm Ecke Neuköllnerstrasse,autobus,A52,1965466,"52.42576178,13.48322598",
Köpenickerstrasse Ecke Neuköllnerstrasse,autobus,A52,1965467,"52.41678547,13.49425005",
Friedhof Rudow,autobus,A52,1965468,"52.42113122,13.50319915",
Mimosenweg Ecke Köpenickerstrasse,autobus,A52,1965469,"52.42288858,13.50912841",
Stubenraustrasse Ecke Kanalstrasse,autobus,A52,1965470,"52.43167573,13.49524803",
"Nikolassee, Alemannenstrasse",autobus,A53,1965471,"52.42669871,13.19137081",
Krottnauererstrasse Ecke Spanische Allee,autobus,A53,1965472,"52.43404562,13.20665810",
Waldemarplatz,autobus,A53,1965473,"52.43775537,13.22018978",
Argentinischeallee Ecke Matterhornstrasse,autobus,A53,1965474,"52.43689574,13.23140795",
Knesebeckstrasse Ecke Seehofstrasse,autobus,A53,1965475,"52.42892135,13.26769723",
Dahlemerweg,autobus,A53,1965476,"52.42634636,13.27683264",
4. Ring,autobus,A53,1965477,"52.42250631,13.28694906",
Luzernerstrasse,autobus,A53,1965478,"52.42403869,13.29291061",
Thunerplatz,autobus,A53,1965479,"52.42373316,13.29626016",
Ostpreußendamm Ecke Königsbergerstrasse,autobus,A53,1965480,"52.43081146,13.31748700",
Lankwitzerstrasse Ecke Königsbergerstrasse,autobus,A53,1965481,"52.42780591,13.32637508",
"Grunewald, Roseneck",autobus,A60,1965482,"52.47593599,13.28214054",
Warnemünderstrasse Ecke Hundekehlestrasse,autobus,A60,1965483,"52.47539579,13.29037056",
Aoppoterstrasse Ecke Breitestrasse,autobus,A60,1965484,"52.47327825,13.29894085",
Hamburgerstrasse Ecke Mecklenburgischestrasse,autobus,A60,1965485,"52.47537517,13.30356645",
U-Bhf. Heidelbergerplatz,autobus,A60,1965486,"52.48045045,13.31283560",
Brabanterplatz,autobus,A60,1965487,"52.48197504,13.31612866",
Am Volkspark,autobus,A60,1965488,"52.48322207,13.32036834",
Berlinerstrasse Ecke Blissestrasse,autobus,A60,1965489,"52.48650431,13.32037437",
Postamt,autobus,A60,1965490,"52.48905066,13.32277037",
Güntzelstrasse Ecke Uhlandstrasse,autobus,A60,1965491,"52.49152414,13.32320274",
Ludwigkirchstrasse Ecke Uhlandstrasse,autobus,A60,1965492,"52.49794390,13.32441187",
Kurfürstendamm Ecke Uhlandstrasse,autobus,A60,1965493,"52.50251711,13.32521539",
Zobeltitzstrasse Ecke Eichborndamm,autobus,A61,1965494,"52.56961198,13.31256257",
"Reinickendorf, Sportplatz",autobus,A61,1965495,"52.57376583,13.35206207",
Schillingstrasse Ecke Scharnweberstrasse,autobus,A61,1965496,"52.56595210,13.32024014",
Humboldtstrasse Ecke Ollenhauerstrasse,autobus,A61,1965497,"52.56924651,13.32987792",
Sebastianfriedhof,autobus,A61,1965498,"52.57100250,13.33636094",
Teichstrasse Ecke Lindauerallee,autobus,A61,1965499,"52.57438307,13.34770098",
Pankowerallee Ecke Residenzstrasse,autobus,A61,1965500,"52.56384896,13.36424475",
Osloerstrasse Ecke Schwedenstrasse,autobus,A61,1965501,"52.55665602,13.37386300",
Exerzierstrasse Ecke Badstrasse,autobus,A61,1965502,"52.55379747,13.37714659",
Usedomerstrasse Ecke Brunnenstrasse,autobus,A61,1965503,"52.54112092,13.39378151",
Bernauerstrasse Ecke Brunnenstrasse,autobus,A61,1965504,"52.53825329,13.39598562",
Gartenplatz,autobus,A61,1965505,"52.53856590,13.38400528",
"Wittenau, Cyclopstrasse",autobus,A62,1965506,"52.59725578,13.33260500",
Bonhoeffer-Heim,autobus,A62,1965507,"52.57940413,13.33327468",
August-Viktoria-Allee Ecke Ollenhauerstrasse,autobus,A62,1965508,"52.56925361,13.32991992",
Saatwinklerdamm Ecke Kurt-Schumacherdamm,autobus,A62,1965509,"52.54801382,13.30054760",
Olbersstrasse Ecke Tegelerweg,autobus,A62,1965510,"52.52929187,13.29626447",
Richard-Wagner-Platz,autobus,A62,1965511,"52.51749099,13.30639710",
Leibnizstrasse Ecke Otto-Suhr-Allee,autobus,A62,1965512,"52.51466736,13.31516095",
Marburgerstrasse Ecke Tauentzstrasse,autobus,A62,1965513,"52.50374577,13.33767470",
Radelandstrasse Ecke Niederheideweg,autobus,A63,1965514,"52.56621908,13.15706778",
Falkenseerchausee Ecke Zweibrückerstrasse,autobus,A63,1965515,"52.54677033,13.18877220",
Falkenseerplatz,autobus,A63,1965516,"52.54036212,13.20329943",
Am Juliusturm Ecke Breitestrasse,autobus,A63,1965517,"52.53883445,13.20752168",
Hochgerichtstrasse Ecke Seegefelderstrasse,autobus,A63,1965518,"52.53843535,13.18239370",
Seegefelderweg (Stadtgrenze),autobus,A63,1965519,"52.54974478,13.12896856",
Vinetaplatz,autobus,A64,1965520,"52.54113780,13.39842130",
Demminerstrasse Ecke Brunnenstrasse,autobus,A64,1965521,"52.54111761,13.39374567",
Prinzenallee Ecke Badstrasse,autobus,A64,1965522,"52.55228673,13.38144563",
Schulstrasse Ecke Exerzierstrasse,autobus,A64,1965523,"52.55396009,13.37150078",
Reinickendorferstrasse Ecke Schulstrasse,autobus,A64,1965524,"52.55156918,13.36734986",
Leopoldplatz,autobus,A64,1965525,"52.54647397,13.35923348",
Antwerpenerstrasse Ecke Luxemburgerstrasse,autobus,A64,1965526,"52.54411217,13.35493853",
Seestrasse Ecke Amrumerstrasse,autobus,A64,1965527,"52.54624999,13.34402033",
Otawistrasse Ecke Afrikanischestrasse,autobus,A64,1965528,"52.55252523,13.33695423",
Müllerstrasse Ecke Afrikanischestrasse,autobus,A64,1965529,"52.56099646,13.33337509",
Holländerstrasse Ecke Septimerstrasse,autobus,A64,1965530,"52.56428064,13.33860259",
Goebelplatz,autobus,A65,1965531,"52.53812718,13.27991415",
Kurt-Schumacherdamm Ecke Heckerdamm,autobus,A65,1965532,"52.53963822,13.29511816",
Jakob-Kaiser-Platz,autobus,A65,1965533,"52.53673970,13.29360488",
Spandauerdamm Ecke Stadtautobahn,autobus,A65,1965534,"52.51857668,13.28324220",
Messedamm/Kaiserdamm,autobus,A65,1965535,"52.50999174,13.28179716",
Hohenzollerndamm Ecke Stadtautobahn,autobus,A65,1965536,"52.48792296,13.30056111",
Heidelbergerplatz,autobus,A65,1965537,"52.48025668,13.31250043",
Blissestrasse Ecke Detmolderstrasse,autobus,A65,1965538,"52.47880087,13.32030264",
Sachsendamm Ecke Eberstrasse,autobus,A65,1965539,"52.48014721,13.35216118",
Alboinstrasse Ecke Schönebergerstrasse,autobus,A65,1965540,"52.46976839,13.37206381",
Manteuffelstrasse Ecke Alt-Tempelhof,autobus,A65,1965541,"52.46635995,13.37809676",
Tempelhoferdamm Ecke Alt-Tempelhof,autobus,A65,1965542,"52.46591642,13.38560642",
Oberlandstrasse Ecke Germaniastrasse,autobus,A65,1965543,"52.46346249,13.40208263",
Hermannstrasse Ecke Silberstreinstrasse,autobus,A65,1965544,"52.46642674,13.43196471",
Karl-Marx-Strasse Ecke Saalestrasse,autobus,A65,1965545,"52.46972817,13.44159100",
Schulenburgpark,autobus,A65,1965546,"52.46654457,13.47034123",
Düppel-Süd,autobus,A66,1965547,"52.42123797,13.22684635",
Fercherstrasse Ecke Berlepschstrasse,autobus,A66,1965548,"52.42335989,13.23473134",
Andreezeile Ecke Teltowerdamm,autobus,A66,1965549,"52.41045731,13.26713203",
Clayallee Ecke Teltowerdamm,autobus,A66,1965550,"52.43506597,13.26042887",
Schützallee Ecke Onkel-Tom-Strasse,autobus,A66,1965551,"52.44062659,13.25520351",
Oranienstrasse Ecke Lindenstrasse,autobus,A67,1965552,"52.50709187,13.39827273",
Moritzplatz,autobus,A67,1965553,"52.50382794,13.41018325",
U-Bhf. Kottbusser Tor,autobus,A67,1965554,"52.49912276,13.41824117",
Kottbusser Brücke,autobus,A67,1965555,"52.49603084,13.42007040",
Hermannplatz,autobus,A67,1965556,"52.48778873,13.42539348",
Erkstrasse Ecke Sonnenallee,autobus,A67,1965557,"52.48167374,13.44011151",
Hertzbergplatz,autobus,A67,1965558,"52.47754135,13.44849300",
Dammweg Ecke Sonnenallee,autobus,A67,1965559,"52.47025948,13.46464808",
Neuköllnerallee Ecke Grenzallee,autobus,A67,1965560,"52.46813425,13.46058472",
Am Oberhafen,autobus,A67,1965561,"52.46501730,13.45059418",
U-Bhf. Grenzallee,autobus,A67,1965562,"52.46369510,13.44423173",
Buschkrug,autobus,A67,1965563,"52.45247090,13.45074820",
Onkel-Herse-Strasse Eke Buschkrugallee,autobus,A67,1965564,"52.44826580,13.45393194",
Parchimerallee Ecke Buschkrugallee,autobus,A67,1965565,"52.44508591,13.45520007",
Otto-Wels-Ring Ecke Str. 454,autobus,A67,1965566,"52.43499737,13.45373288",
Thielallee Ecke Königin-Luise-Strasse,autobus,A68,1965567,"52.45813421,13.28704347",
U-Bhf. Dahlem-Dorf,autobus,A68,1965568,"52.45807070,13.28970695",
Arnimallee Ecke Königin-Luise-Strasse,autobus,A68,1965569,"52.45776572,13.29858724",
Lepsiusstrasse Ecke Grunewaldstrasse,autobus,A68,1965570,"52.45878275,13.31560706",
Breitestrasse Ecke Albrechtstrasse,autobus,A68,1965571,"52.45436072,13.32829610",
Bismarckstrasse Ecke Bergstrasse,autobus,A68,1965572,"52.45863794,13.33929802",
Munsterdamm Ecke Bergstrasse,autobus,A68,1965573,"52.45910801,13.34873117",
Alboinstrasse Ecke Arnulfstrasse,autobus,A68,1965574,"52.45573855,13.36988790",
Tempelhoferdamm Ecke Friedrich-Karl-Strasse,autobus,A68,1965575,"52.45579853,13.38396054",
Kaiserin-Augusta-Strasse,autobus,A68,1965576,"52.45936602,13.38446422",
Alt-Tempelhof Ecke Tempelhoferdamm,autobus,A68,1965577,"52.46601300,13.38558828",
U-Bhf. Tempelhof,autobus,A68,1965578,"52.46987510,13.38558706",
Eichkamp,autobus,A69,1965579,"52.48991827,13.25954128",
Trabenerstrasse Ecke Halenseestrasse,autobus,A69,1965580,"52.49735494,13.28272174",
Bleibtreustrasse Ecke Kurfürstendamm,autobus,A69,1965581,"52.50160348,13.31946411",
Nürnbergerstrasse Ecke Kurfürstenstrasse,autobus,A69,1965582,"52.50512043,13.34120096",
An der Urania,autobus,A69,1965583,"52.50313264,13.34990933",
Tiergartenstrasse Ecke Klingelhöferstrasse,autobus,A69,1965584,"52.50956693,13.35136665",
Kongreßhalle,autobus,A69,1965585,"52.51763253,13.36319698",
John-Foster-Dulles-Allee Ecke Neue Verbindungsstrasse,autobus,A69,1965586,"52.51741103,13.37050573",
Moltkebrücke,autobus,A69,1965587,"52.52163755,13.36922927",
"Wollankstrasse, Sektorengrenze",autobus,A70,1965588,"52.56559871,13.39083019",
Soldinerstrasse Ecke Prinzenallee,autobus,A70,1965589,"52.55868402,13.38625492",
Osloerstrasse Ecke Prinzenallee,autobus,A70,1965590,"52.55531797,13.38384006",
Badstrasse Ecke Pankstrasse,autobus,A70,1965591,"52.55228518,13.38146632",
Wiesenstrasse Ecke Pankstrasse,autobus,A70,1965592,"52.54760177,13.37388377",
Ravenéstrasse Ecke Reinickendorferstrasse,autobus,A70,1965593,"52.54285307,13.36977037",
Weddingplatz,autobus,A70,1965594,"52.54113612,13.36850103",
Tegelerstrasse Ecke Fennstrasse,autobus,A70,1965595,"52.53790109,13.36161851",
Rathenowerstrasse Ecke Perlebergerstrasse,autobus,A70,1965596,"52.53247559,13.35058625",
Turmstrasse Ecke Rathenowerstrasse,autobus,A70,1965597,"52.52677327,13.35526322",
Krankenhaus Moabit,autobus,A70,1965598,"52.52631364,13.34776241",
Rathaus Tiergarten,autobus,A70,1965599,"52.52649086,13.33835898",
Berlichingenstrasse Ecke Huttenstrassse,autobus,A70,1965600,"52.52782924,13.32479771",
Wiebestrasse Ecke Turmstrasse,autobus,A70,1965601,"52.52836900,13.31942444",
"Wilhelmsruh, Kopenhagenerstrasse",autobus,A71,1965602,"52.58389051,13.36547285",
Lindauerallee Ecke Residenzstrasse,autobus,A71,1965603,"52.57335465,13.35896485",
Emmentalerstrasse Ecke Residenzstrasse,autobus,A71,1965604,"52.57036326,13.36089423",
Schäfersee,autobus,A71,1965605,"52.56412403,13.36412797",
Reginhardstrasse Ecke Pankowerallee,autobus,A71,1965606,"52.56431243,13.37349062",
Provinzstrasse Ecke Pankowerallee,autobus,A71,1965607,"52.56468577,13.37805639",
Ritterlandweg Ecke Soldinerstrasse,autobus,A71,1965608,"52.56075604,13.37703412",
Prinzenallee Ecke Soldinerstrasse,autobus,A71,1965609,"52.55868935,13.38625549",
Ramlerstrasse Ecke Brunnenstrasse,autobus,A71,1965610,"52.54710870,13.38914654",
Gustav-Meyer-Allee Ecke Brunnenstrasse,autobus,A71,1965611,"52.54467816,13.39104867",
Residenzstrasse Ecke Klemkestrasse,autobus,A72,1965612,"52.57424589,13.35915138",
Residenzstrasse Ecke Lindauerallee,autobus,A72,1965613,"52.57335472,13.35894171",
Louise-Schroeder-Platz,autobus,A72,1965614,"52.55713317,13.36551369",
Nauener Platz,autobus,A72,1965615,"52.55155262,13.36737073",
Pankstrasse Ecke Reinickendorferstrasse,autobus,A72,1965616,"52.54523194,13.37050345",
Heidestrasse Ecke Perlebergerstrasse,autobus,A72,1965617,"52.53729390,13.36028117",
Turmstrasse Ecke Stromstrasse,autobus,A72,1965618,"52.52631574,13.34320006",
Wiebestrasse Ecke Huttenstrasse,autobus,A72,1965619,"52.52836900,13.31942444",
Tauroggenerstrasse Ecke Osnabrückerstrasse,autobus,A72,1965620,"52.52585108,13.30194744",
Landgericht,autobus,A72,1965621,"52.52698926,13.29716765",
Quellweg Ecke Nonnendammallee,autobus,A72,1965622,"52.53667861,13.26845965",
Paulsternstrasse Ecke Nonnendammallee,autobus,A72,1965623,"52.53816405,13.24773771",
Gartenfeld,autobus,A72,1965624,"52.54719055,13.24779333",
Kurfürstendamm Ecke Tauentzienstrasse,autobus,A73,1965625,"52.50442326,13.33565780",
Motzstrasse Ecke Kleiststrasse,autobus,A73,1965626,"52.49965229,13.35335875",
Grunewaldstrasse Ecke Martin-Luther-Strasse,autobus,A73,1965627,"52.48905218,13.34501538",
Ebersstrasse Ecke Dominicusstrasse,autobus,A73,1965628,"52.48014768,13.35214638",
Reichartstrasse Ecke Sachsendamm,autobus,A73,1965629,"52.47272490,13.36648096",
Berlinickeplatz,autobus,A73,1965630,"52.46607292,13.37851641",
Rohdestrasse Ecke Germaniastrasse,autobus,A73,1965631,"52.46205027,13.40440412",
Gottlieb-Dunkel-Strasse Ecke Germaniastrasse,autobus,A73,1965632,"52.46056888,13.41797540",
Britzerdamm Ecke Gradestrasse,autobus,A73,1965633,"52.45263536,13.43855969",
U-Bhf. Blaschko-Allee,autobus,A73,1965634,"52.45247827,13.44899996",
"Britz, Buschkrug",autobus,A73,1965635,"52.45251852,13.45212388",
Königin-Elisabeth-Strasse/Messedamm,autobus,A74,1965636,"52.51000392,13.28183577",
Spandauerdamm Ecke Königin-Elisabeth-Strasse,autobus,A74,1965637,"52.51839539,13.28021270",
Klausenerplatz,autobus,A74,1965638,"52.51924427,13.29194874",
Schloßstrasse Ecke Seelingstrasse,autobus,A74,1965639,"52.51566300,13.29654868",
Sophie-Charlotte-Platz,autobus,A74,1965640,"52.51083333,13.29666667",Q657879
Kaiser-Friedrich-Strasse Ecke Kantstrasse,autobus,A74,1965641,"52.50678591,13.30232482",
Kurfürstendamm Ecke Wilmersdorferstrasse,autobus,A74,1965642,"52.50001126,13.30714351",
Fehrbelliner Platz,autobus,A74,1965643,"52.49040639,13.31420422",
Bundesallee Ecke Berlinerstrasse,autobus,A74,1965644,"52.48732558,13.33098413",
Martin-Luther-Strasse Ecke Grunewaldstrasse,autobus,A74,1965645,"52.48910174,13.34492201",
Egelingzeile,autobus,A74,1965646,"52.46359357,13.37006890",
"Lindenhof, Eythstrasse",autobus,A74,1965647,"52.45972284,13.36642830",
Munsterdamm Ecke Steglitzerdamm,autobus,A75,1965648,"52.45000526,13.34672202",
Bismarckstrasse Ecke Steglitzerdamm,autobus,A75,1965649,"52.45107274,13.33791199",
Lauenburgerplatz,autobus,A75,1965650,"52.46159988,13.33932524",
Dominicusstrasse Ecke Hauptstrasse,autobus,A75,1965651,"52.48180072,13.34837800",
Am Karlsbad,autobus,A75,1965652,"52.50551053,13.36801582",
Oranienstrasse Ecke Kochstrasse,autobus,A75,1965653,"52.50709133,13.39827714",
Spreewaldplatz,autobus,A75,1965654,"52.49746663,13.43173833",
Sonnenallee Ecke Pannierstrasse,autobus,A75,1965655,"52.48609620,13.43021786",
Blohmstrasse Ecke Wünsdorferstrasse,autobus,A76,1965656,"52.38867997,13.39435043",
Bahnhofstrasse Ecke Prinzesssinnenstrasse,autobus,A76,1965657,"52.38668922,13.39674308",
Marienfelderstrasse Ecke Lichtenraderdamm,autobus,A76,1965658,"52.39246195,13.40672267",
Tauernallee Ecke Mariendorferdamm,autobus,A76,1965659,"52.42332668,13.39618311",
"Rennbahn, Mariendorferdamm",autobus,A76,1965660,"52.43151989,13.39150823",
Alt-Mariendorf Ecke Mariendorferdamm,autobus,A76,1965661,"52.44016815,13.38721341",
Burgemeisterstrasse Ecke Tempelhoferdamm,autobus,A76,1965662,"52.45702094,13.38394001",
Thuyring Ecke Tempelhoferdamm,autobus,A76,1965663,"52.47485480,13.38574214",
Bayernring Ecke Tempelhoferdamm,autobus,A76,1965664,"52.48160551,13.38587377",
Platz der Luftbrücke,autobus,A76,1965665,"52.48500811,13.38598451",
"Marienfelde, Daimlerstrasse",autobus,A77,1965666,"52.42310029,13.38271915",
Großbeerenstrasse Ecke Daimlerstrasse,autobus,A77,1965667,"52.42632723,13.37438167",
Körtingstrasse Ecke Großbeerenstrasse,autobus,A77,1965668,"52.43481353,13.37831564",
Mariendorferdamm Ecke Alt-Mariendorf,autobus,A77,1965669,"52.44016441,13.38732183",
Markgrafenstrasse Ecke Mariendorferdamm,autobus,A77,1965670,"52.45018182,13.38492769",
Rathaus Tempelhof,autobus,A77,1965671,"52.46300094,13.38534224",
Paradestrasse Ecke Tempelhoferdamm,autobus,A77,1965672,"52.47819508,13.38582477",
Tropfsteinweg Ecke Quarzweg,autobus,A78,1965673,"52.42357623,13.41467087",
Tauernallee Ecke Quarzweg,autobus,A78,1965674,"52.42788188,13.40510195",
Mariendorferdamm Ecke Tauernallee,autobus,A78,1965675,"52.42330592,13.39614258",
Rennbahn,autobus,A78,1965676,"52.43151989,13.39150823",
U-Bhf. Leopoldplatz,autobus,A79,1965677,"52.54639075,13.35913321",
Pankowerallee Ecke Reginhardstrasse,autobus,A79,1965678,"52.56432609,13.37350010",
Hausotterstrasse Ecke Reginhardstrasse,autobus,A79,1965679,"52.56824258,13.37256899",
Büdnerring Ecke Emmentalerstrasse,autobus,A79,1965680,"52.57363649,13.36780545",
Somerstrasse Ecke Klemkestrasse,autobus,A79,1965681,"52.57476725,13.37353054",
Breitestrasse Ecke Marktstrasse,autobus,A80,1965682,"52.53688328,13.20531643",
Nauenerstrasse Ecke Brunsbüttelerdamm,autobus,A80,1965683,"52.53406507,13.18169672",
Egelpfuhlstrasse Ecke Brunsbüttelerdamm,autobus,A80,1965684,"52.53353493,13.16940853",
Nennhauserdamm Ecke Brunsbüttelerdamm,autobus,A80,1965685,"52.53251629,13.14156536",
U-Bhf. Spichernstrasse,autobus,A81,1965686,"52.49666209,13.33063500","nan, nan"
Schloßstrasse Ecke Feuerbachstrasse,autobus,A81,1965687,"52.46311733,13.32672483",
Steglitzerdamm Ecke Bismarckstrasse,autobus,A81,1965688,"52.45108585,13.33790127",
Alt-Lankwitz Dorfaue,autobus,A81,1965689,"52.43908383,13.35441775",
Imbrosweg Ecke Rixdorferstrasse,autobus,A81,1965690,"52.44350787,13.39864167",
Dardanellenweg Ecke Rixdorferstrasse,autobus,A81,1965691,"52.44495402,13.40008867",
Nettelbeckplatz,autobus,A83,1965692,"52.54464512,13.37015454",
Heidestrasse Ecke Fennstrasse,autobus,A83,1965693,"52.53731772,13.36029323",
Washingtonplatz,autobus,A83,1965694,"52.52421576,13.37059958",
Potsdamerstrasse Ecke Neue Verbindungsstrasse,autobus,A83,1965695,"52.50917801,13.37176335",
Reichpietsch Ufer Ecke Potsdamerstrasse,autobus,A83,1965696,"52.50626666,13.36847203",
Schöneberger Ufer Ecke Potsdamerstrasse,autobus,A83,1965697,"52.50582420,13.36822756",
Bülowstrasse Ecke Potsdamerstrasse,autobus,A83,1965698,"52.49780937,13.36202312",
Martin-Luther-Strasse Ecke Hauptstrasse,autobus,A83,1965699,"52.47919735,13.34495863",
"Grazer Platz, Rubensstrasse",autobus,A83,1965700,"52.46714419,13.34418649",
Bergstrasse Ecke Thorwaldsenstrasse,autobus,A83,1965701,"52.45916615,13.34768499",
Steglitzerdamm Ecke Munsterdamm,autobus,A83,1965702,"52.45000608,13.34672706",
Albrechtstrasse Ecke Siemensstrasse,autobus,A83,1965703,"52.44697413,13.34238318",
Malteserstrasse Ecke Paul-Schneiderstrasse,autobus,A83,1965704,"52.43337314,13.35303713",
Preysingstresse Ecke Malteserstrasse,autobus,A83,1965705,"52.42459385,13.35671085",
Belßstrasse Ecke Wichurastrasse,autobus,A83,1965706,"52.42825963,13.36268315",
Ringstrasse Ecke Pestalozzistrasse,autobus,A84,1965707,"52.43272276,13.28707174",
Kadettenweg Ecke Finckensteinallee,autobus,A84,1965708,"52.43244907,13.29922143",
Krahmerstrasse Ecke Hindenburgdamm,autobus,A84,1965709,"52.43785561,13.31567297",
Klingsorstrasse Ecke Hindenburgerdamm,autobus,A84,1965710,"52.44312155,13.31569756",
Händelplatz,autobus,A84,1965711,"52.45066566,13.31587443",
Unter den Eichen Ecke Hindenburgdamm,autobus,A84,1965712,"52.45347005,13.31556961",
Schloßstrasse Ecke Hindenburgerdamm,autobus,A84,1965713,"52.45350913,13.31567768",
Florastrasse Ecke Schloßstrasse,autobus,A84,1965714,"52.46144282,13.32517793",
Bundesallee Ecke Rheinstrasse,autobus,A84,1965715,"52.46493424,13.32843851",
Gotenstrasse Ecke Torgauerstrasse,autobus,A84,1965716,"52.47978047,13.36019236",
Motzstrasse Ecke Martin-Luther-Strasse,autobus,A85,1965717,"52.49712618,13.34610186",
Bayerischer Platz,autobus,A85,1965718,"52.48833333,13.34027778",Q668574
Hildegardstrasse Ecke Bundesallee,autobus,A85,1965719,"52.48165724,13.32942778",
Schildhornstrasse Ecke Schoßstrasse,autobus,A85,1965720,"52.46148081,13.32506744",
Moltkestrasse Ecke Gardeschützenweg,autobus,A85,1965721,"52.44677332,13.30673860",
Drakestrasse Ecke Gardeschützenweg,autobus,A85,1965722,"52.44269018,13.29700526",
Rittberg-Krankenhaus,autobus,A85,1965723,"52.42987952,13.28896146",
Thuner Platz,autobus,A85,1965724,"52.42375897,13.29618487",
Goerzallee Ecke Wismarerstrasse,autobus,A85,1965725,"52.42197343,13.29844428",
Ostpreußendamm Ecke Wismarerstrasse,autobus,A85,1965726,"52.41787023,13.30519617",
Holtheimer Weg Ecke Wormbacher Weg,autobus,A85,1965727,"52.40993905,13.30336414",
Invalidenstrasse (Sektorengrenze),autobus,A86,1965728,"52.52731343,13.37206043",
Rathenowerstrasse Ecke Alt-Moabit,autobus,A86,1965729,"52.52363005,13.35684871",
Stromstrasse Ecke Alt-Moabit,autobus,A86,1965730,"52.52539702,13.34278622",
Gotzkowskystrasse Ecke Alt-Moabit,autobus,A86,1965731,"52.52381416,13.32973099",
Helmholtzstrasse Ecke Franklinstrasse,autobus,A86,1965732,"52.52234318,13.32844863",
Cauerstrasse Ecke Otto-Suhr-Allee,autobus,A86,1965733,"52.51469847,13.31523032",
Kantstrasse Ecke Wilmersdorferstrasse,autobus,A86,1965734,"52.50670639,13.30668035",
Kurfürstendamm Ecke Brandenburgischestrasse,autobus,A86,1965735,"52.50002234,13.30701910",
Konstanzerstrasse Ecke Brandenburgischestrasse,autobus,A86,1965736,"52.49354591,13.31007243",
Blissestrasse Ecke Mecklenburgischestrasse,autobus,A86,1965737,"52.48368070,13.32024441",
Schildhornstrasse Ecke Schloßstrasse,autobus,A86,1965738,"52.46147802,13.32512191",
Gardeschützenweg Ecke Hindenburgdamm,autobus,A86,1965739,"52.44961307,13.31533099",
Klingsorstrasse Ecke Birkbuschstrasse,autobus,A86,1965740,"52.44752909,13.32632316",
Birkbuschstrasse Ecke Siemensstrasse,autobus,A86,1965741,"52.44243904,13.33208217",
Wilmersdorferstrasse Ecke Otto-Suhr-Allee,autobus,A87,1965742,"52.51811241,13.30443482",
"Luisenplatz, Spandauer Damm",autobus,A87,1965743,"52.51959199,13.29891202",
Schloßstrasse Ecke Spandauer Damm,autobus,A87,1965744,"52.51945635,13.29594131",
Sophie-Charlotten-Strasse Ecke Spandauer Damm,autobus,A87,1965745,"52.51877597,13.28665640",
Pulsstrasse Ecke Sophie-Charlotten-Strasse,autobus,A87,1965746,"52.52421632,13.28505878",
Neue-Kantstrasse Ecke Messedamm,autobus,A88,1965747,"52.50645040,13.28034752",
Halenseestrasse Ecke Messedamm,autobus,A88,1965748,"52.50358004,13.27899377",
Deutschland-Halle,autobus,A88,1965749,"52.49876605,13.27206768",
Eichkamp (Alte Allee),autobus,A88,1965750,"52.49184466,13.26343585",
Bornholmer Brücke (Sektorengrenze),autobus,A89,1965751,"52.55474925,13.39756390",
Prinzenallee Ecke Osloerstrasse,autobus,A89,1965752,"52.55595531,13.38435069",
Koloniestrasse Ecke Osloerstrasse,autobus,A89,1965753,"52.55645881,13.37766712",
Schwedenstrasse Ecke Osloerstrasse,autobus,A89,1965754,"52.55674734,13.37371279",
Reinickendorferstrasse Ecke Osloerstrasse,autobus,A89,1965755,"52.55695941,13.36559908",
Afrikanischestrasse Ecke Seestrasse,autobus,A89,1965756,"52.54623694,13.34393083",
Saatwinkler Damm/Beusselstrasse,autobus,A89,1965757,"52.53817455,13.32617083",
Beusselstrasse Ecke Sickingenstrasse,autobus,A89,1965758,"52.53296894,13.32844750",
Huttenstrasse Ecke Beusselstrasse,autobus,A89,1965759,"52.52740013,13.32867332",
Huttenstrasse Ecke Wiebestrasse,autobus,A89,1965760,"52.52837370,13.31943360",
Wiebestrasse Ecke Kaiserin-Augusta-Allee,autobus,A89,1965761,"52.52580214,13.31797917",
Otto-Suhr-Allee Ecke Wilmersdorferstrasse,autobus,A89,1965762,"52.51807977,13.30444555",
Blissestrasse Ecke Brandenburgischestrasse,autobus,A89,1965763,"52.48651073,13.32032803",
Uhlandstrasse Ecke Berlinerstrasse,autobus,A89,1965764,"52.48648130,13.32250148",
Potsdamerstrasse Ecke Pallasstrasse,autobus,A89,1965765,"52.49431875,13.36100643",
Kulmerstrasse Ecke Goebenstrasse,autobus,A89,1965766,"52.49358859,13.36586990",
Großbeerenstrasse Ecke Yorckstrasse,autobus,A89,1965767,"52.49368808,13.38355154",
U-Bhf. Gneisenaustrasse,autobus,A89,1965768,"52.49122659,13.39632791",
Zossenerstrasse Ecke Blücherstrasse,autobus,A89,1965769,"52.49623241,13.39508019",
Mehringplatz,autobus,A89,1965770,"52.49827538,13.39190927",
Alt-Moabit Ecke Gotzkowskystrasse,autobus,A90,1965771,"52.52377876,13.32973510","nan, nan"
"U-Bhf. Turmstrasse, Alt-Moabit",autobus,A90,1965772,"52.52562203,13.34119684",
Kirchstrasse Ecke Alt-Moabit,autobus,A90,1965773,"52.52454036,13.34955441",
Perlebergerstrasse Ecke Rathenowerstrasse,autobus,A90,1965774,"52.53251179,13.35056076",
Am Nordhafen,autobus,A90,1965775,"52.53868316,13.36324841",
Gartenstrasse & Grenzstrasse,autobus,A90,1965776,"52.54181102,13.37807511",
Wattstrasse Ecke Usedomerstrasse,autobus,A90,1965777,"52.54025184,13.39064471",
U-Bhf. Leinestrasse,autobus,A91,1965778,"52.47263483,13.42855206",
Siegfriedstrasse Ecke Hermannstrasse,autobus,A91,1965779,"52.46787567,13.43109511",
Mariendorfer Weg Ecke Hermannstrasse,autobus,A91,1965780,"52.46469159,13.43289078",
Germaniapromenade Ecke Britzerdamm,autobus,A91,1965781,"52.46087492,13.43504314",
Franz-Körnerstrasse Ecke Britzerdamm,autobus,A91,1965782,"52.45591015,13.43724797",
Gradestrasse Ecke Britzerdamm,autobus,A91,1965783,"52.45265737,13.43851513",
Tempelhofer Weg Ecke Britzerdamm,autobus,A91,1965784,"52.44894820,13.43619608",
Mohriner Allee Ecke Buckower Damm,autobus,A91,1965785,"52.44415812,13.43354138",
Gutschmidtstrasse Ecke Buckower Damm,autobus,A91,1965786,"52.44037172,13.43478719",
Schlosserweg Ecke Buckower Damm,autobus,A91,1965787,"52.43931812,13.43486911",
Zimmererweg Ecke Buckower Damm,autobus,A91,1965788,"52.43530943,13.43512496",
Dachdeckerweg Ecke Buckower Damm,autobus,A91,1965789,"52.43209036,13.43515188",
Parkfriedhof Neukölln,autobus,A91,1965790,"52.42837472,13.43500150",
Alt-Buckow Ecke Buckower Damm,autobus,A91,1965791,"52.42365120,13.43663595",
Grunewaldstrasse Ecke Ruhlebenerstrasse,autobus,A92,1965792,"52.53017273,13.20468457",
Klosterstrasse Ecke Ruhlebenerstrasse,autobus,A92,1965793,"52.53291424,13.19844858",
Schmidt-Knobelsdorf-Strasse Ecke Wilhelmstrasse,autobus,A92,1965794,"52.52167175,13.18891981",
Wilhelmstrasse/Heerstrasse,autobus,A92,1965795,"52.51662276,13.17904272",
Reimerweg Ecke Heerstrasse,autobus,A92,1965796,"52.52184204,13.15430702",
"Rudow, Waßmannsdorfer Chaussee Ecke Groß Ziethener Chaussee",autobus,A93,1965797,"52.41526753,13.49553224",
Eichenauer Weg Ecke Waßmannsdorfer Chaussee,autobus,A93,1965798,"52.41260921,13.49510452",
Lockenhuhnweg Ecke Waßmannsdorfer Chaussee,autobus,A93,1965799,"52.40834716,13.49244876",
Geflügelsteig Ecke Waßmannsdorfer Chaussee,autobus,A93,1965800,"52.40508366,13.49066251",
Klein-Ziethener Weg Ecke Geflügelsteig,autobus,A93,1965801,"52.40710730,13.48484559",
Lakenfelderweg Ecke Geflügelsteig,autobus,A93,1965802,"52.40828415,13.48211785",
Groß Ziethener Chaussee Ecke Geflügelsteig,autobus,A93,1965803,"52.41047365,13.47942642",
Pirnaer Strasse Ecke Groß Ziethener Chaussee,autobus,A93,1965804,"52.41190291,13.48372425",
Kolonie Ewige Heimat,autobus,A93,1965805,"52.41342548,13.48968439",
Waßmannsdorfer Chaussee Ecke Groß Ziethener Chaussee,autobus,A93,1965806,"52.41525444,13.49553224",
Baerwaldstrasse Ecke Urbanstrasse,autobus,A95,1965807,"52.49389984,13.40346009",
"Hermannplatz, Sonnenallee",autobus,A95,1965808,"52.48787819,13.42530729",
Pannierstrasse Ecke Sonnenallee,autobus,A95,1965809,"52.48611601,13.43027163",
Saalestrasse Ecke Sonnenallee,autobus,A95,1965810,"52.47386410,13.45587793",
Schwarzer Weg Ecke Sonnenallee,autobus,A95,1965811,"52.46241684,13.47666100",
Brunnenstrasse Ecke Lortzingstrasse,autobus,A99,1965812,"52.54254624,13.39272812",
"Brunnenplatz, Pankstrasse",autobus,A99,1965813,"52.54974599,13.37737049",
Rathenowerstrasse Ecke Quitzowstrasse,autobus,A99,1965814,"52.53509388,13.34967453",
Wernerwerk,autobus,A99,1965815,"52.53562700,13.27537088",
Quellweg Ecke Nonnendamm Allee,autobus,A99,1965816,"52.53666858,13.26843643",
Paulsternstrasse Ecke Nonnendamm Allee,autobus,A99,1965817,"52.53814656,13.24775542",
Gartenfelderstrasse Ecke Nonnendammallee,autobus,A99,1965818,"52.53921965,13.23193032",
Carl-Schurz-Strasse Ecke Am Juliusturm,autobus,A99,1965819,"52.53954502,13.20555083",
Breitestrasse Ecke Charlottenstrasse,autobus,A99,1965820,"52.53613955,13.20442990",
Germesheimer Platz,autobus,A99,1965821,"52.54456786,13.18701195",
Fürstenbrunner Weg Ecke Spandauer Damm,autobus,AS1,1965822,"52.51842262,13.28011647",
Kirschenallee Ecke Spandauer Damm,autobus,AS1,1965823,"52.52037881,13.26719193",
Schloß Ruhwald,autobus,AS1,1965824,"52.52160458,13.26039687",
Teltower Strasse Ecke Ruhlebenerstrasse,autobus,AS1,1965825,"52.52691598,13.21592513",
Lynarstrasse Ecke Neuendorferstrasse,autobus,AS1,1965826,"52.54898690,13.21020961",
Klinkeplatz,autobus,AS1,1965827,"52.55555146,13.19854978",
Hohenzollernring,autobus,AS1,1965828,"52.55534807,13.19865762",
Kurfürstendamm Ecke Joachimthalerstrasse,autobus,AS2,1965829,"52.50381681,13.33133158",
Rankeplatz,autobus,AS2,1965830,"52.50042978,13.33086733",
Hohenzollerndamm Ecke Bundesallee,autobus,AS2,1965831,"52.49531823,13.33073029",
Trautenaustrasse Ecke Bundesallee,autobus,AS2,1965832,"52.49316877,13.33084761",
Canovastrasse Ecke Thorwaldsenstrasse,autobus,AS2,1965833,"52.46303228,13.34275862",
Mariendorfer Damm Ecke Kaiserstrasse,autobus,AS2,1965834,"52.44555364,13.38578300",
Alt-Mariendorf Ecke Mariendorfer Damm,autobus,AS2,1965835,"52.44019477,13.38731753","nan, nan"
Tauernallee Ecke Mariendorfer Damm,autobus,AS2,1965836,"52.42328224,13.39615754",
Buckower Chaussee Ecke Lichtenrader Damm,autobus,AS2,1965837,"52.41457113,13.40120395",
Goethestrasse Ecke Lichtenrader Damm,autobus,AS2,1965838,"52.40441063,13.40618736",
Goltzstrasse Ecke Lichtenrader Damm,autobus,AS2,1965839,"52.38741231,13.40969616",
Steinstrasse Ecke Bahnhofstrasse,autobus,AS2,1965840,"52.38670377,13.39856724",
Seesenerstrasse Ecke Hohenzollerndamm,autobus,AS3,1965841,"52.48846116,13.30215002",
Pücklerstrasse Ecke Clayallee,autobus,AS3,1965842,"52.46857085,13.27839710",
Königin-Luise-Strasse Ecke Clayallee,autobus,AS3,1965843,"52.46048317,13.27487914",
Winifriedstrasse Ecke Clayallee,autobus,AS3,1965844,"52.43922923,13.26287138",
Clayallee Ecke Berlinerstrasse,autobus,AS3,1965845,"52.43506128,13.26045832",
Savignyplatz,autobus,AS4,1965846,"52.50585291,13.32187247",
Leibnizstrasse Ecke Kantstrasse,autobus,AS4,1965847,"52.50628812,13.31395372",
Wilmersdorferstrasse Ecke Kantstrasse,autobus,AS4,1965848,"52.50669450,13.30667544",
Wundtstrasse Ecke Neue Kantstrasse,autobus,AS4,1965849,"52.50644122,13.28374229",
Messedamm Ecke Neue Kantstrasse,autobus,AS4,1965850,"52.50646481,13.28039967",
Spanische Allee Ecke Kronprinzessinnenweg,autobus,AS4,1965851,"52.43381203,13.18936731",
Am Großen Wannsee Ecke Königstrasse,autobus,AS4,1965852,"52.42050256,13.16717980",
Kladow,ferry,Kladow <> Wannsee,1965853,"52.45151499,13.14796194",
Wannsee,ferry,Kladow <> Wannsee,1965854,"52.42192802,13.17581596",
Gesundbrunnen,s-bahn,KBS 100,1965855,"52.54861111,13.38944444",Q111239092
Wedding,s-bahn,KBS 100,1965856,"52.54250000,13.36610000",Q638604
Putlitzstr.,s-bahn,KBS 100,1965857,"52.53600000,13.34400000",Q465972
Beusselstr.,s-bahn,KBS 100,1965858,"52.53444444,13.32916667",Q323219
Jungfernheide,s-bahn,KBS 100,1965859,"52.53035000,13.29943333",Q110977325
Westend,s-bahn,KBS 100,1965860,"52.51810000,13.28440000",Q323214
Witzleben,s-bahn,KBS 100,1965861,"52.50780000,13.28360000",Q321266
Westkreuz,s-bahn,KBS 100,1965862,"52.50110000,13.28390000",Q678125
Halensee,s-bahn,KBS 100,1965863,"52.49610000,13.29060000",Q800476
Hohenzollerndamm,s-bahn,KBS 100,1965864,"52.48850000,13.30040000",Q800503
Schmargendorf,s-bahn,KBS 100,1965865,"52.47967222,13.31244167",Q302810
Wilmersdorf,s-bahn,KBS 100,1965866,"52.47765833,13.32852500",Q464094
Innsbrucker Platz,s-bahn,KBS 100,1965867,"52.47860000,13.34390000",Q111263876
Schöneberg,s-bahn,KBS 100,1965868,"52.47940000,13.35170000",Q543855
Papestr.,s-bahn,KBS 100,1965869,"52.47560000,13.36440000",Q111323139
Tempelhof,s-bahn,KBS 100,1965870,"52.47080000,13.38540000",Q111264368
Hermannstr.,s-bahn,KBS 100,1965871,"52.46750000,13.43111111",Q111263802
Neukölln,s-bahn,KBS 100,1965872,"52.46916667,13.44166667",Q111325412
Sonnenallee,s-bahn,KBS 100,1965873,"52.47300000,13.45580000",Q481364
Siemensstadt-Fürstenbrunn,s-bahn,KBS 100a,1965874,"52.52800000,13.26950000",Q18747940
Spandau,s-bahn,KBS 100a,1965875,"52.53200000,13.20890000",Q800491
Spandau West,s-bahn,KBS 100a,1965876,"52.53470000,13.19580000",Q111325678
Staaken,s-bahn,KBS 100a,1965877,"52.53780000,13.14140000",Q477545
Wernerwerk,s-bahn,KBS 100b,1965878,"52.53486300,13.27599000",Q96077001
Siemensstadt,s-bahn,KBS 100b,1965879,"52.53923000,13.26365000",Q96080453
Gartenfeld,s-bahn,KBS 100b,1965880,"52.54695000,13.24882000",Q96080469
Heiligensee,s-bahn,KBS 100c,1965881,"52.62470000,13.22920000",Q800475
Schulzendorf (b Tegel),s-bahn,KBS 100c,1965882,"52.61280000,13.24620000",Q800487
Tegel,s-bahn,KBS 100c,1965883,"52.58860000,13.28940000",Q800493
Eichbornstr.,s-bahn,KBS 100c,1965884,"52.57760000,13.31690000",Q800500
Wittenau (Kremmener Bahn),s-bahn,KBS 100c,1965885,"52.59701300,13.33432900",Q111264319
Reinickendorf,s-bahn,KBS 100c,1965886,"52.57790000,13.35060000",Q800496
Schönholz,s-bahn,KBS 100c,1965887,"52.57140000,13.38140000",Q800490
Wollankstr.,s-bahn,KBS 100c,1965888,"52.56515250,13.39236270",Q800515
Humboldthain,s-bahn,KBS 100c,1965889,"52.54510000,13.37960000",Q481276
Friedrichstr.,s-bahn,KBS 100c,1965890,"52.52027778,13.38694444",Q111219456
Anhalter Bahnhof,s-bahn,KBS 100c,1965891,"52.50305556,13.38194444",Q111324573
Yorckstr.,s-bahn,KBS 100c,1965892,"52.49177778,13.37214167",Q21776729
Priesterweg,s-bahn,KBS 100c,1965893,"52.46010000,13.35630000",Q800508
Mariendorf,s-bahn,KBS 100c,1965894,"52.44780000,13.36090000",Q800497
Marienfelde,s-bahn,KBS 100c,1965895,"52.42420000,13.37470000",Q800485
Buckower Ch.,s-bahn,KBS 100c,1965896,"52.41030000,13.38290000",Q800499
Lichtenrade,s-bahn,KBS 100c,1965897,"52.38760000,13.39630000",Q6543354
Südende,s-bahn,KBS 100d,1965898,"52.44810000,13.35360000",Q800511
Lankwitz,s-bahn,KBS 100d,1965899,"52.43860000,13.34170000",Q800481
Lichterfelde Ost,s-bahn,KBS 100d,1965900,"52.43000000,13.32890000",Q111311299
Lichterfelde Süd,s-bahn,KBS 100d,1965901,"52.41000000,13.30860000",Q800482
Frohnau,s-bahn,KBS 100e,1965902,"52.63250000,13.29020000",Q800472
Hermsdorf,s-bahn,KBS 100e,1965903,"52.61780000,13.30690000",Q263189
Waidmannslust,s-bahn,KBS 100e,1965904,"52.60640000,13.32100000",Q800492
Wittenau (Nordbahn),s-bahn,KBS 100e,1965905,"52.59701300,13.33432900",Q111264319
Wilhelmsruh,s-bahn,KBS 100e,1965906,"52.58140000,13.36310000",Q800495
Großgörschenstr.,s-bahn,KBS 100e,1965907,"52.49227450,13.36785880",Q21776726
Friedenau,s-bahn,KBS 100e,1965908,"52.47000000,13.34100000",Q800471
Feuerbachstr.,s-bahn,KBS 100e,1965909,"52.46361111,13.33277778",Q800501
Steglitz,s-bahn,KBS 100e,1965910,"52.45620000,13.32160000",Q111264179
Botanischer Garten,s-bahn,KBS 100e,1965911,"52.44806000,13.30722000",Q800498
Lichterfelde West,s-bahn,KBS 100e,1965912,"52.44330000,13.29470000",Q111327103
Sundgauer Str.,s-bahn,KBS 100e,1965913,"52.43629100,13.27377200",Q800513
Zehlendorf,s-bahn,KBS 100e,1965914,"52.43090000,13.25840000",Q737962
Lindenthaler Allee,s-bahn,KBS 100e,1965915,"52.43750000,13.23250000",Q315891
Schlachtensee,s-bahn,KBS 100e,1965916,"52.44010000,13.21530000",Q800509
Nikolassee,s-bahn,KBS 100e,1965917,"52.43170000,13.19330000",Q637052
Wannsee,s-bahn,KBS 100e,1965918,"52.42140000,13.17920000",Q111325896
Düppel-Kleinmachnow,s-bahn,KBS 100f,1965919,"52.42138889,13.22666667",Q44763529
Lehrter Stadtbahnhof,s-bahn,KBS 100g,1965920,"52.52530000,13.36940000",Q821299
Bellevue,s-bahn,KBS 100g,1965921,"52.52000000,13.34805556",Q374018
Tiergarten,s-bahn,KBS 100g,1965922,"52.51440000,13.33650000",Q572112
Zoologischer Garten,s-bahn,KBS 100g,1965923,"52.50722222,13.33250000",Q111326238
Savignyplatz,s-bahn,KBS 100g,1965924,"52.50517460,13.31906590",Q554382
Charlottenburg,s-bahn,KBS 100g,1965925,"52.50472222,13.30333333",Q111326217
Eichkamp,s-bahn,KBS 100g,1965926,"52.49870000,13.27020000",Q800504
Heerstr.,s-bahn,KBS 100g,1965927,"52.50860000,13.25860000",Q800502
Olympiastadion,s-bahn,KBS 100g,1965928,"52.51100000,13.24160000",Q800506
Pichelsberg,s-bahn,KBS 100g,1965929,"52.51030000,13.22710000",Q800488
Grunewald,s-bahn,KBS 100h,1965930,"52.48920000,13.26140000",Q457266
Köllnische Heide,s-bahn,KBS 100k,1965931,"52.46940000,13.46750000",Q800505
Schlesisches Tor,u-bahn,A I,1965932,"52.50083333,13.44166667",Q602282
Görlitzer Bahnhof (Oranienstr.),u-bahn,A I,1965933,"52.49920000,13.42800000",Q597759
Kottbusser Tor,u-bahn,A I,1965934,"52.49916667,13.41805556",Q819768
Prinzenstr.,u-bahn,A I,1965935,"52.49833333,13.40611111",Q689797
Hallesches Tor,u-bahn,A I,1965936,"52.49777778,13.39111111",Q658302
Gleisdreieck,u-bahn,A I,1965937,"52.49952000,13.37409000",Q678372
Kurfürstenstr.,u-bahn,A I,1965938,"52.50000000,13.36194444",Q690203
Nollendorfplatz,u-bahn,A I,1965939,"52.49916667,13.35388889",Q571039
Wittenbergplatz,u-bahn,A I,1965940,"52.50194444,13.34305556",Q692727
Zoologischer Garten,u-bahn,A I,1965941,"52.50586690,13.33302360",Q4024764
Ernst-Reuter-Platz,u-bahn,A I,1965942,"52.51194444,13.32222222",Q658361
Deutsche Oper (Bismarckstr.),u-bahn,A I,1965943,"52.51194444,13.31055556",Q869501
Sophie-Charlotte-Platz,u-bahn,A I,1965944,"52.51083333,13.29666667",Q657879
Kaiserdamm (Messedamm),u-bahn,A I,1965945,"52.51000000,13.28220000",Q656409
Theodor-Heuss-Platz,u-bahn,A I,1965946,"52.50972222,13.27305556",Q657857
Ruhleben,u-bahn,A I,1965947,"52.52555556,13.24138889",Q656401
Möckernbrücke,u-bahn,A II,1965948,"52.49916667,13.38277778",Q704716
Augsburger Str.,u-bahn,A II,1965949,"52.50055600,13.33638900",Q667035
Spichernstrasse,u-bahn,A II,1965950,"52.49638889,13.33055556",Q667046
Hohenzollernplatz,u-bahn,A II,1965951,"52.49388889,13.32500000",Q571570
Fehrbelliner Platz,u-bahn,A II,1965952,"52.49027778,13.31444444",Q663245
Heidelberger Platz,u-bahn,A II,1965953,"52.47980833,13.31323611",Q21777872
Rüdesheimer Platz,u-bahn,A II,1965954,"52.47333333,13.31444444",Q167147
Breitenbachplatz,u-bahn,A II,1965955,"52.46638889,13.30805556",Q571339
Podbielskiallee,u-bahn,A II,1965956,"52.46444444,13.29638889",Q571324
Dahlem-Dorf,u-bahn,A II,1965957,"52.45694444,13.28944444",Q668585
Thielplatz,u-bahn,A II,1965958,"52.45111111,13.28222222",Q571331
Oskar-Helene-Heim,u-bahn,A II,1965959,"52.45027778,13.26972222",Q681336
Onkel Toms Hütte,u-bahn,A II,1965960,"52.45027778,13.25333333",Q389214
Krumme Lanke,u-bahn,A II,1965961,"52.44333333,13.24138889",Q663945
Richard-Wagner-Platz,u-bahn,A III,1965962,"52.51750000,13.30638889",Q662201
Bayerischer Platz,u-bahn,B I,1965963,"52.48833333,13.34027778",Q668574
Innsbrucker Platz,u-bahn,B I,1965964,"52.47860000,13.34390000",Q10275871
Kurfürstendamm,u-bahn,B III,1965965,"52.50416667,13.33277778",Q663933
Uhlandstrasse,u-bahn,B III,1965966,"52.49368292,13.32361138",
Tegel,u-bahn,C I,1965967,"52.58944000,13.28389000",Q656090
Borsigwerke,u-bahn,C I,1965968,"52.58190000,13.29070000",Q525185
Holzhauser Str.,u-bahn,C I,1965969,"52.57583333,13.29611111",Q557566
Seidelstr. (Flughafen Tegel),u-bahn,C I,1965970,"52.57111100,13.30277800",Q557582
Scharnweberstr. (Eichborndamm),u-bahn,C I,1965971,"52.56694444,13.31277778",Q557586
Kurt-Schumacher-Platz,u-bahn,C I,1965972,"52.56355556,13.32657222",Q555916
Afrikanische Str.,u-bahn,C I,1965973,"52.56002778,13.33463333",Q559239
Rehberge,u-bahn,C I,1965974,"52.55670000,13.34120000",Q253850
Seestr.,u-bahn,C I,1965975,"52.55056000,13.35194000",Q554391
Leopoldplatz,u-bahn,C I,1965976,"52.54650000,13.35910000",Q1960809
Bahnhof Wedding,u-bahn,C I,1965977,"52.54250000,13.36611100",Q4018733
Reinickendorfer Str.,u-bahn,C I,1965978,"52.53991111,13.37037778",Q559249
Bahnhof Friedrichstr. (Stadtbahn),u-bahn,C I,1965979,"52.52011111,13.38830556",Q3753274
Kochstr.,u-bahn,C I,1965980,"52.50589722,13.39061111",Q201849
Mehringdamm,u-bahn,C I,1965981,"52.49388889,13.38833333",Q657905
Gneisenaustr.,u-bahn,C I,1965982,"52.49138889,13.39555556",Q668618
Südstern,u-bahn,C I,1965983,"52.48944444,13.40777778",Q656081
Hermannplatz,u-bahn,C I,1965984,"52.48629000,13.42455000",Q658929
Rathaus Neukölln,u-bahn,C I,1965985,"52.48166667,13.43416667",Q628770
Karl-Marx-Str.,u-bahn,C I,1965986,"52.47611111,13.43916667",Q519494
Neukölln (Südring),u-bahn,C I,1965987,"52.46944400,13.44222200",Q21272767
Grenzallee,u-bahn,C I,1965988,"52.46333333,13.44388889",Q571836
Blaschkoallee,u-bahn,C I,1965989,"52.45194444,13.44944444",Q666911
Parchimer Allee,u-bahn,C I,1965990,"52.44472222,13.44944444",Q571855
Britz-Süd,u-bahn,C I,1965991,"52.43777778,13.44805556",Q571845
Flughafen,u-bahn,C II,1965992,"52.48555600,13.38583300",Q557582
Paradestr.,u-bahn,C II,1965993,"52.47805556,13.38611111",Q557543
Tempelhof (Südring),u-bahn,C II,1965994,"52.47075000,13.38536111",Q3983109
Gesundbrunnen,u-bahn,D,1965995,"52.54861100,13.38944400",Q3761416
Voltastr.,u-bahn,D,1965996,"52.54209300,13.39302200",Q663308
Moritzplatz,u-bahn,D,1965997,"52.50361111,13.41083333",Q374225
Kottbusser Damm (Schönleinstr.),u-bahn,D,1965998,"52.49305556,13.42194444",Q666868
Boddinstr.,u-bahn,D,1965999,"52.48000000,13.42527778",Q819495
Leinestr.,u-bahn,D,19651000,"52.47277778,13.42833333",Q668563
Amrumer Strasse,u-bahn,G,19651001,"52.54250000,13.35027778",Q557577
Pulitzstrasse,u-bahn,G,19651002,"52.53679500,13.34272400",Q4019188
Birkenstrasse,u-bahn,G,19651003,"52.53222222,13.34138889",Q555998
Turmstrasse,u-bahn,G,19651004,"52.52585000,13.34135278",Q571400
Hansaplatz,u-bahn,G,19651005,"52.51777778,13.34222222",Q287552
